stop_id,stop_code,stop_name,stop_desc,stop_lat,stop_lon,zone_id,stop_url,location_type,parent_station,stop_timezone,wheelchair_boarding,agency_id
8039,108039,Regional Rd. 25 @ Hwy. 401 Park & Ride,,43.527742,-79.903491,24,https://www.gotransit.com/en/stations-stops-parking/find-a-station-or-stop/results?stationCode=08039,0,,,1,GO
8032,108032,Bramalea Bus Terminal,,43.7186356,-79.7205734,32,https://www.gotransit.com/en/stations-stops-parking/find-a-station-or-stop/results?stationCode=08032,0,,,1,GO
8030,108030,Williams Pkwy. @ Hwy. 410 Park & Ride,,43.71671,-79.751277,32,https://www.gotransit.com/en/stations-stops-parking/find-a-station-or-stop/results?stationCode=08030,0,,,1,GO
8029,108029,University of Toronto Scarborough,,43.7843628,-79.1851273,89,https://www.gotransit.com/en/stations-stops-parking/find-a-station-or-stop/results?stationCode=08029,0,,,1,GO
8025,108025,Trafalgar Rd. @ Hwy. 407 Park & Ride,,43.505837,-79.74487,13,https://www.gotransit.com/en/stations-stops-parking/find-a-station-or-stop/results?stationCode=08025,0,,,1,GO
8024,108024,Trafalgar Rd. @ Hwy. 407 Park & Ride,,43.506226,-79.745384,13,https://www.gotransit.com/en/stations-stops-parking/find-a-station-or-stop/results?stationCode=08024,0,,,1,GO
8021,108021,Hwy. 2 @ Hwy. 35/115 Park & Ride,,43.912918,-78.613016,97,https://www.gotransit.com/en/stations-stops-parking/find-a-station-or-stop/results?stationCode=08021,0,,,1,GO
8012,108012,Malton GO Bus,,43.705143,-79.637825,31,https://www.gotransit.com/en/stations-stops-parking/find-a-station-or-stop/results?stationCode=08012,0,,,1,GO
8006,108006,Bradford GO Bus,,44.116654,-79.555752,65,https://www.gotransit.com/en/stations-stops-parking/find-a-station-or-stop/results?stationCode=08006,0,,,1,GO
8002,108002,Allandale Waterfront GO Bus,,44.373817,-79.689441,69,https://www.gotransit.com/en/stations-stops-parking/find-a-station-or-stop/results?stationCode=08002,0,,,1,GO
2775,102775,Port Credit GO,,43.55559844,-79.58745742,10,https://www.gotransit.com/en/stations-stops-parking/find-a-station-or-stop/results?stationCode=02775,0,,,1,GO
2774,102774,Weber St. W. @ College St.,,43.45374089,-80.4920579,27,https://www.gotransit.com/en/stations-stops-parking/find-a-station-or-stop/results?stationCode=02774,0,,,2,GO
2773,102773,Weber St. W. @ Victoria St. N.,,43.45465444,-80.49339133,27,https://www.gotransit.com/en/stations-stops-parking/find-a-station-or-stop/results?stationCode=02773,0,,,2,GO
2772,102772,Yonge St. @ Sheppard Ave.,,43.762188,-79.41093451,5,https://www.gotransit.com/en/stations-stops-parking/find-a-station-or-stop/results?stationCode=02772,0,,,1,GO
2771,102771,Yonge St. @ Hwy. 407,,43.83846643,-79.42930969,60,https://www.gotransit.com/en/stations-stops-parking/find-a-station-or-stop/results?stationCode=02771,0,,,1,GO
2768,102768,Yonge St. @ Westwood Ln.,,43.84457894,-79.4312069,60,https://www.gotransit.com/en/stations-stops-parking/find-a-station-or-stop/results?stationCode=02768,0,,,2,GO
2766,102766,Trafalgar Rd. @ McCraney St. E.,,43.466272,-79.690048,13,https://www.gotransit.com/en/stations-stops-parking/find-a-station-or-stop/results?stationCode=02766,0,,,2,GO
2765,102765,Trafalgar Rd. @ Upper Middle Rd. E.,,43.474533,-79.701471,13,https://www.gotransit.com/en/stations-stops-parking/find-a-station-or-stop/results?stationCode=02765,0,,,2,GO
2764,102764,Trafalgar Rd. @ River Oaks Blvd. E.,,43.47697,-79.70504,13,https://www.gotransit.com/en/stations-stops-parking/find-a-station-or-stop/results?stationCode=02764,0,,,2,GO
2763,102763,Trafalgar Rd. @ Glenashton Dr.,,43.48015,-79.709384,13,https://www.gotransit.com/en/stations-stops-parking/find-a-station-or-stop/results?stationCode=02763,0,,,2,GO
2762,102762,Trafalgar Rd. @ Rosegate Way,,43.482331,-79.712359,13,https://www.gotransit.com/en/stations-stops-parking/find-a-station-or-stop/results?stationCode=02762,0,,,2,GO
2761,102761,Brock St. N. @ Kenneth Hobbs Ave.,,43.900662,-78.951231,93,https://www.gotransit.com/en/stations-stops-parking/find-a-station-or-stop/results?stationCode=02761,0,,,1,GO
2760,102760,Brock St. N. @ McCartney Ave.,,43.900086,-78.951303,93,https://www.gotransit.com/en/stations-stops-parking/find-a-station-or-stop/results?stationCode=02760,0,,,1,GO
2759,102759,King St. W. @ Queen St. N.,,43.25943,-79.878547,18,https://www.gotransit.com/en/stations-stops-parking/find-a-station-or-stop/results?stationCode=02759,0,,,1,GO
2758,102758,Hwy. 47 @ Paisley Ln.,,44.01779836,-79.23194801,75,https://www.gotransit.com/en/stations-stops-parking/find-a-station-or-stop/results?stationCode=02758,0,,,2,GO
2753,102753,Cooksville GO Bus,,43.582296,-79.624506,11,https://www.gotransit.com/en/stations-stops-parking/find-a-station-or-stop/results?stationCode=02753,0,,,1,GO
2752,102752,Cooksville GO Bus,,43.58229618,-79.62450558,11,https://www.gotransit.com/en/stations-stops-parking/find-a-station-or-stop/results?stationCode=02752,0,,,1,GO
2751,102751,Cooksville GO Bus,,43.582296,-79.624506,11,https://www.gotransit.com/en/stations-stops-parking/find-a-station-or-stop/results?stationCode=02751,0,,,1,GO
2750,102750,Main St. S. @ Clarence St.,,43.6803568,-79.75266575,33,https://www.gotransit.com/en/stations-stops-parking/find-a-station-or-stop/results?stationCode=02750,0,,,1,GO
2749,102749,Simcoe St. S. @ Athol St. E.,,43.896376,-78.862941,94,https://www.gotransit.com/en/stations-stops-parking/find-a-station-or-stop/results?stationCode=02749,0,,,1,GO
2748,102748,Centre St. S. @ Athol St. W.,,43.89617,-78.865335,94,https://www.gotransit.com/en/stations-stops-parking/find-a-station-or-stop/results?stationCode=02748,0,,,1,GO
2747,102747,King Ave. W. @ Rudell Rd.,,43.914758,-78.600169,97,https://www.gotransit.com/en/stations-stops-parking/find-a-station-or-stop/results?stationCode=02747,0,,,1,GO
2746,102746,Main St. S. @ Nanwood Dr.,,43.676796,-79.747726,33,https://www.gotransit.com/en/stations-stops-parking/find-a-station-or-stop/results?stationCode=02746,0,,,1,GO
2745,102745,Main St. N. @ Williams Pkwy.,,43.6983315,-79.77684511,33,https://www.gotransit.com/en/stations-stops-parking/find-a-station-or-stop/results?stationCode=02745,0,,,1,GO
2744,102744,Yonge St. @ Little Ave.,,44.36632,-79.662611,68,https://www.gotransit.com/en/stations-stops-parking/find-a-station-or-stop/results?stationCode=02744,0,,,1,GO
2743,102743,Green Lane E. @ Yonge St.,,44.073514,-79.481434,64,https://www.gotransit.com/en/stations-stops-parking/find-a-station-or-stop/results?stationCode=02743,0,,,1,GO
2742,102742,Prospect St. @ Davis Dr.,,44.05972,-79.453897,64,https://www.gotransit.com/en/stations-stops-parking/find-a-station-or-stop/results?stationCode=02742,0,,,1,GO
2741,102741,Davis Dr. @ Prospect St.,,44.060566,-79.454395,64,https://www.gotransit.com/en/stations-stops-parking/find-a-station-or-stop/results?stationCode=02741,0,,,1,GO
2739,102739,Rathburn Rd. W. @ Perivale Rd.,,43.575505,-79.664227,40,https://www.gotransit.com/en/stations-stops-parking/find-a-station-or-stop/results?stationCode=02739,0,,,1,GO
2738,102738,Rathburn Rd. W. @ Perivale Rd.,,43.575855,-79.664277,40,https://www.gotransit.com/en/stations-stops-parking/find-a-station-or-stop/results?stationCode=02738,0,,,1,GO
2737,102737,Derry Rd. @ Sauve St.,,43.524441,-79.842406,24,https://www.gotransit.com/en/stations-stops-parking/find-a-station-or-stop/results?stationCode=02737,0,,,1,GO
2736,102736,Derry Rd. @ Sauve St.,,43.523968,-79.842312,24,https://www.gotransit.com/en/stations-stops-parking/find-a-station-or-stop/results?stationCode=02736,0,,,1,GO
2735,102735,Winchester Rd. @ Simcoe St.,,43.955004,-78.954569,51,https://www.gotransit.com/en/stations-stops-parking/find-a-station-or-stop/results?stationCode=02735,0,,,1,GO
2734,102734,Winchester Rd. @ Thickson Rd.,,43.957485,-78.942565,51,https://www.gotransit.com/en/stations-stops-parking/find-a-station-or-stop/results?stationCode=02734,0,,,1,GO
2733,102733,Winchester Rd. @ Thickson Rd.,,43.957375,-78.943983,51,https://www.gotransit.com/en/stations-stops-parking/find-a-station-or-stop/results?stationCode=02733,0,,,1,GO
2732,102732,Davis Dr. W. @ Eagle St. W.,,44.053908,-79.485428,64,https://www.gotransit.com/en/stations-stops-parking/find-a-station-or-stop/results?stationCode=02732,0,,,1,GO
2731,102731,Davis Dr. W. @ Eagle St. W.,,44.053617,-79.485558,64,https://www.gotransit.com/en/stations-stops-parking/find-a-station-or-stop/results?stationCode=02731,0,,,1,GO
2730,102730,Centennial Pkwy N. @ QEW Park & Ride,,43.24258306,-79.75995711,80,https://www.gotransit.com/en/stations-stops-parking/find-a-station-or-stop/results?stationCode=02730,0,,,1,GO
2729,102729,Bramalea GO Bus,,43.7030887,-79.69168346,32,https://www.gotransit.com/en/stations-stops-parking/find-a-station-or-stop/results?stationCode=02729,0,,,1,GO
2728,102728,Bramalea GO Bus,,43.7015111,-79.69324676,32,https://www.gotransit.com/en/stations-stops-parking/find-a-station-or-stop/results?stationCode=02728,0,,,1,GO
2726,102726,Bayview Ave. @ River Ridge Blvd.,,44.009295,-79.444537,63,https://www.gotransit.com/en/stations-stops-parking/find-a-station-or-stop/results?stationCode=02726,0,,,1,GO
2725,102725,Bayview Ave. @ River Ridge Blvd.,,44.009748,-79.445043,63,https://www.gotransit.com/en/stations-stops-parking/find-a-station-or-stop/results?stationCode=02725,0,,,1,GO
2722,102722,Main St. @ Mill St. E.,,43.63012105,-80.04190714,37,https://www.gotransit.com/en/stations-stops-parking/find-a-station-or-stop/results?stationCode=02722,0,,,1,GO
2721,102721,Gordon St. @ Stone Rd.,,43.52729217,-80.22562144,39,https://www.gotransit.com/en/stations-stops-parking/find-a-station-or-stop/results?stationCode=02721,0,,,1,GO
2720,102720,Elizabeth St. @ Victoria Rd.,,43.5552971,-80.23030185,39,https://www.gotransit.com/en/stations-stops-parking/find-a-station-or-stop/results?stationCode=02720,0,,,1,GO
2719,102719,York St. @ 800 York St.,,43.55848311,-80.21499014,39,https://www.gotransit.com/en/stations-stops-parking/find-a-station-or-stop/results?stationCode=02719,0,,,1,GO
2718,102718,Gordon St. @ Kortright Rd.,,43.52240203,-80.21349316,39,https://www.gotransit.com/en/stations-stops-parking/find-a-station-or-stop/results?stationCode=02718,0,,,2,GO
2717,102717,Gordon St. @ Clairfields Dr. E.,,43.50576364,-80.19430228,39,https://www.gotransit.com/en/stations-stops-parking/find-a-station-or-stop/results?stationCode=02717,0,,,1,GO
2716,102716,Courtice Rd. @ Baseline Rd. P&R,,43.88608009,-78.76888464,95,https://www.gotransit.com/en/stations-stops-parking/find-a-station-or-stop/results?stationCode=02716,0,,,1,GO
2715,102715,First Ave. @ Front St. Park & Ride,,43.884898,-78.85374,94,https://www.gotransit.com/en/stations-stops-parking/find-a-station-or-stop/results?stationCode=02715,0,,,1,GO
2714,102714,First Ave. @ Front St. Park & Ride,,43.885019,-78.854257,94,https://www.gotransit.com/en/stations-stops-parking/find-a-station-or-stop/results?stationCode=02714,0,,,1,GO
2713,102713,Queen St. E. @ Centre St. S.,,43.6909642,-79.75439031,33,https://www.gotransit.com/en/stations-stops-parking/find-a-station-or-stop/results?stationCode=02713,0,,,1,GO
2712,102712,Bovaird Dr. W. @ McLaughlin Rd. N.,,43.69575853,-79.79817969,33,https://www.gotransit.com/en/stations-stops-parking/find-a-station-or-stop/results?stationCode=02712,0,,,1,GO
2711,102711,Major Mackenzie Dr. E. @ Hwy. 404,,43.88270116,-79.38037165,50,https://www.gotransit.com/en/stations-stops-parking/find-a-station-or-stop/results?stationCode=02711,0,,,1,GO
2710,102710,Major Mackenzie Dr. E. @ Hwy. 404,,43.88277417,-79.38044063,50,https://www.gotransit.com/en/stations-stops-parking/find-a-station-or-stop/results?stationCode=02710,0,,,1,GO
2709,102709,Yonge St. @ Finch Ave.,,43.78085194,-79.41600246,5,https://www.gotransit.com/en/stations-stops-parking/find-a-station-or-stop/results?stationCode=02709,0,,,1,GO
2708,102708,Hwy. 50 @ Castlemore Rd.,,43.80220278,-79.66894305,56,https://www.gotransit.com/en/stations-stops-parking/find-a-station-or-stop/results?stationCode=02708,0,,,1,GO
2706,102706,Yonge St. @ Queen St.,,44.09558088,-79.49018158,65,https://www.gotransit.com/en/stations-stops-parking/find-a-station-or-stop/results?stationCode=02706,0,,,1,GO
2705,102705,Winchester Rd. W. @ Lake Ridge Rd.,,43.94049935,-79.0165522,87,https://www.gotransit.com/en/stations-stops-parking/find-a-station-or-stop/results?stationCode=02705,0,,,2,GO
2702,102702,Kingston Rd. @ Westney Rd.,,43.85767867,-79.0409886,92,https://www.gotransit.com/en/stations-stops-parking/find-a-station-or-stop/results?stationCode=02702,0,,,1,GO
2700,102700,Trafalgar Rd. @ Dundas St.,,43.48791194,-79.71998312,13,https://www.gotransit.com/en/stations-stops-parking/find-a-station-or-stop/results?stationCode=02700,0,,,2,GO
2699,102699,Hwy. 10 @ Travelled Rd.,,43.85739699,-79.99224859,42,https://www.gotransit.com/en/stations-stops-parking/find-a-station-or-stop/results?stationCode=02699,0,,,2,GO
2698,102698,Victoria St. E. @ S Blair St,,43.86545588,-78.92099739,93,https://www.gotransit.com/en/stations-stops-parking/find-a-station-or-stop/results?stationCode=02698,0,,,2,GO
2697,102697,Victoria St E. @ S Blair St.,,43.86534725,-78.92096507,93,https://www.gotransit.com/en/stations-stops-parking/find-a-station-or-stop/results?stationCode=02697,0,,,2,GO
2696,102696,Guelph St. @ Hall Rd.,,43.64869029,-79.87654447,35,https://www.gotransit.com/en/stations-stops-parking/find-a-station-or-stop/results?stationCode=02696,0,,,2,GO
2694,102694,Bayview Ave. @ St. John''s Sideroad,,44.0234616,-79.44769206,63,https://www.gotransit.com/en/stations-stops-parking/find-a-station-or-stop/results?stationCode=02694,0,,,1,GO
2693,102693,Bayview Ave. @ St. John''s Sideroad,,44.02372395,-79.44818182,64,https://www.gotransit.com/en/stations-stops-parking/find-a-station-or-stop/results?stationCode=02693,0,,,2,GO
2692,102692,Bayview Ave. @ Mulock Dr.,,44.0410445,-79.45175865,64,https://www.gotransit.com/en/stations-stops-parking/find-a-station-or-stop/results?stationCode=02692,0,,,1,GO
2691,102691,Bayview Ave. @ Mulock Dr.,,44.04144157,-79.45215895,64,https://www.gotransit.com/en/stations-stops-parking/find-a-station-or-stop/results?stationCode=02691,0,,,1,GO
2690,102690,Prospect St. @ Pearson St.,,44.04934281,-79.45288438,64,https://www.gotransit.com/en/stations-stops-parking/find-a-station-or-stop/results?stationCode=02690,0,,,1,GO
2689,102689,Prospect St. @ Pearson St.,,44.04961862,-79.45304073,64,https://www.gotransit.com/en/stations-stops-parking/find-a-station-or-stop/results?stationCode=02689,0,,,1,GO
2688,102688,Burton Ave. @ Granville St.,,44.37165856,-79.69050533,69,https://www.gotransit.com/en/stations-stops-parking/find-a-station-or-stop/results?stationCode=02688,0,,,2,GO
2687,102687,Burton Ave. @ Granville St.,,44.37164445,-79.69115957,69,https://www.gotransit.com/en/stations-stops-parking/find-a-station-or-stop/results?stationCode=02687,0,,,2,GO
2685,102685,Simcoe St. @ Britannia Ave.,,43.95627983,-78.89999317,88,https://www.gotransit.com/en/stations-stops-parking/find-a-station-or-stop/results?stationCode=02685,0,,,2,GO
2683,102683,Green Lane E. @ Yonge St.,,44.073913,-79.481138,64,https://www.gotransit.com/en/stations-stops-parking/find-a-station-or-stop/results?stationCode=02683,0,,,2,GO
2682,102682,Queen St. @ Mill St.,,43.88099958,-79.74008965,58,https://www.gotransit.com/en/stations-stops-parking/find-a-station-or-stop/results?stationCode=02682,0,,,2,GO
2681,102681,Queen St. @ Hickman St.,,43.88128946,-79.74073955,58,https://www.gotransit.com/en/stations-stops-parking/find-a-station-or-stop/results?stationCode=02681,0,,,2,GO
2680,102680,Bramalea Rd. @ Balmoral Dr.,,43.71546797,-79.70546768,32,https://www.gotransit.com/en/stations-stops-parking/find-a-station-or-stop/results?stationCode=02680,0,,,1,GO
2678,102678,Gordon St. @ Clair Rd. W.,,43.50038668,-80.1893148,39,https://www.gotransit.com/en/stations-stops-parking/find-a-station-or-stop/results?stationCode=02678,0,,,1,GO
2677,102677,Gordon St. @ Clair Rd. E.,,43.5002317,-80.18866501,39,https://www.gotransit.com/en/stations-stops-parking/find-a-station-or-stop/results?stationCode=02677,0,,,2,GO
2676,102676,Dundas St. @ Halls Rd.,,43.87106345,-78.9813988,93,https://www.gotransit.com/en/stations-stops-parking/find-a-station-or-stop/results?stationCode=02676,0,,,2,GO
2675,102675,Dundas St. @ Halls Rd.,,43.87130523,-78.98112057,93,https://www.gotransit.com/en/stations-stops-parking/find-a-station-or-stop/results?stationCode=02675,0,,,2,GO
2674,102674,Hwy 407 Bus Terminal,,43.78307132,-79.52444584,19,https://www.gotransit.com/en/stations-stops-parking/find-a-station-or-stop/results?stationCode=02674,0,,,1,GO
2673,102673,Hwy 407 Bus Terminal,,43.78304656,-79.52322607,19,https://www.gotransit.com/en/stations-stops-parking/find-a-station-or-stop/results?stationCode=02673,0,,,1,GO
2672,102672,Dundas St. @ Hwy. 412 Park & Ride,,43.87694866,-78.98122495,93,https://www.gotransit.com/en/stations-stops-parking/find-a-station-or-stop/results?stationCode=02672,0,,,1,GO
2664,102664,City Centre Dr. @ Duke of York Blvd.,,43.5892029,-79.64274645,20,https://www.gotransit.com/en/stations-stops-parking/find-a-station-or-stop/results?stationCode=02664,0,,,2,GO
2663,102663,City Centre Dr. @ Robert Speck Pkwy.,,43.59422554,-79.63927873,20,https://www.gotransit.com/en/stations-stops-parking/find-a-station-or-stop/results?stationCode=02663,0,,,1,GO
2662,102662,City Centre Dr. @ Robert Speck Pkwy.,,43.59474809,-79.63975878,20,https://www.gotransit.com/en/stations-stops-parking/find-a-station-or-stop/results?stationCode=02662,0,,,1,GO
2661,102661,Renforth Transitway Station,,43.66299509,-79.59111811,25,https://www.gotransit.com/en/stations-stops-parking/find-a-station-or-stop/results?stationCode=02661,0,,,1,GO
2660,102660,Renforth Transitway Station,,43.66307543,-79.59128119,25,https://www.gotransit.com/en/stations-stops-parking/find-a-station-or-stop/results?stationCode=02660,0,,,1,GO
2659,102659,Dixie Transitway Station,,43.63001289,-79.61462548,25,https://www.gotransit.com/en/stations-stops-parking/find-a-station-or-stop/results?stationCode=02659,0,,,1,GO
2658,102658,Dixie Transitway Station,,43.63004787,-79.61468789,25,https://www.gotransit.com/en/stations-stops-parking/find-a-station-or-stop/results?stationCode=02658,0,,,1,GO
2655,102655,Hurontario St. @ Fairview Rd.,,43.58759076,-79.62650467,11,https://www.gotransit.com/en/stations-stops-parking/find-a-station-or-stop/results?stationCode=02655,0,,,1,GO
2654,102654,Hurontario St. @ Elm Dr.,,43.59083319,-79.63101443,11,https://www.gotransit.com/en/stations-stops-parking/find-a-station-or-stop/results?stationCode=02654,0,,,2,GO
2653,102653,Hwy. 10 @ Buena Vista Dr.,,43.92184853,-80.08305877,43,https://www.gotransit.com/en/stations-stops-parking/find-a-station-or-stop/results?stationCode=02653,0,,,2,GO
2652,102652,West Harbour GO,,43.26606855,-79.86599781,18,https://www.gotransit.com/en/stations-stops-parking/find-a-station-or-stop/results?stationCode=02652,0,,,1,GO
2651,102651,Military Trail. @ Pan Am Dr.,,43.78779541,-79.19041905,89,https://www.gotransit.com/en/stations-stops-parking/find-a-station-or-stop/results?stationCode=02651,0,,,1,GO
2650,102650,Military Trail. @ Pan Am Dr.,,43.78785602,-79.19089198,89,https://www.gotransit.com/en/stations-stops-parking/find-a-station-or-stop/results?stationCode=02650,0,,,1,GO
2647,102647,Trafalgar Rd. @ Dundas St. E.,,43.48779937,-79.71929316,13,https://www.gotransit.com/en/stations-stops-parking/find-a-station-or-stop/results?stationCode=02647,0,,,2,GO
2646,102646,Niagara College,,43.15248459,-79.16653394,84,https://www.gotransit.com/en/stations-stops-parking/find-a-station-or-stop/results?stationCode=02646,0,,,1,GO
2645,102645,Main St. @ Baker Hill Blvd.,,43.96539918,-79.27427923,74,https://www.gotransit.com/en/stations-stops-parking/find-a-station-or-stop/results?stationCode=02645,0,,,2,GO
2644,102644,Main St. @ Ringwood Dr.,,43.965031,-79.27493934,74,https://www.gotransit.com/en/stations-stops-parking/find-a-station-or-stop/results?stationCode=02644,0,,,1,GO
2637,102637,Davis Dr. @ Superior St. (Newmarket GO).,,44.0594444,-79.4590073,64,https://www.gotransit.com/en/stations-stops-parking/find-a-station-or-stop/results?stationCode=02637,0,,,1,GO
2636,102636,Winston Churchill Transitway Station,,43.5417557,-79.7129898,21,https://www.gotransit.com/en/stations-stops-parking/find-a-station-or-stop/results?stationCode=02636,0,,,1,GO
2635,102635,Winston Churchill Transitway Station,,43.5419006,-79.7131805,21,https://www.gotransit.com/en/stations-stops-parking/find-a-station-or-stop/results?stationCode=02635,0,,,1,GO
2634,102634,Davis Dr. @ Superior St. (Newmarket GO).,,44.0596123,-79.4592438,64,https://www.gotransit.com/en/stations-stops-parking/find-a-station-or-stop/results?stationCode=02634,0,,,1,GO
2633,102633,Mountainview Rd. N. @ Maple Ave.,,43.6563339,-79.9114151,35,https://www.gotransit.com/en/stations-stops-parking/find-a-station-or-stop/results?stationCode=02633,0,,,2,GO
2631,102631,Hwy. 7A @ 6th Line,,44.0956688,-78.9611511,52,https://www.gotransit.com/en/stations-stops-parking/find-a-station-or-stop/results?stationCode=02631,0,,,2,GO
2629,102629,Gormley GO,,43.9409103,-79.3985214,78,https://www.gotransit.com/en/stations-stops-parking/find-a-station-or-stop/results?stationCode=02629,0,,,1,GO
2628,102628,Kingston Rd. @ Brock Rd.,,43.8478546,-79.0743408,91,https://www.gotransit.com/en/stations-stops-parking/find-a-station-or-stop/results?stationCode=02628,0,,,1,GO
2627,102627,Brock Rd. S. @ Gilmour Rd.,,43.466629,-80.1415634,39,https://www.gotransit.com/en/stations-stops-parking/find-a-station-or-stop/results?stationCode=02627,0,,,2,GO
2626,102626,Brock Rd. S. @ Gilmour Rd.,,43.4668732,-80.1422806,39,https://www.gotransit.com/en/stations-stops-parking/find-a-station-or-stop/results?stationCode=02626,0,,,2,GO
2623,102623,Winchester Rd. W. @ Lake Ridge Rd.,,43.9403648,-79.0159454,87,https://www.gotransit.com/en/stations-stops-parking/find-a-station-or-stop/results?stationCode=02623,0,,,2,GO
2621,102621,Ontario St. @ QEW (Beamsville) Park & Ride,,43.1881676,-79.4759598,82,https://www.gotransit.com/en/stations-stops-parking/find-a-station-or-stop/results?stationCode=02621,0,,,1,GO
2620,102620,McMaster Innovation Park,,43.2564278,-79.9013138,18,https://www.gotransit.com/en/stations-stops-parking/find-a-station-or-stop/results?stationCode=02620,0,,,1,GO
2619,102619,McMaster Innovation Park,,43.2570114,-79.9015045,18,https://www.gotransit.com/en/stations-stops-parking/find-a-station-or-stop/results?stationCode=02619,0,,,1,GO
2617,102617,Brantford Bus Terminal,,43.1403084,-80.2649918,85,https://www.gotransit.com/en/stations-stops-parking/find-a-station-or-stop/results?stationCode=02617,0,,,1,GO
2616,102616,Colborne St. E. @ Park Ave.,,43.1390533,-80.2543106,85,https://www.gotransit.com/en/stations-stops-parking/find-a-station-or-stop/results?stationCode=02616,0,,,1,GO
2615,102615,Dalhousie St. @ Park Ave.,,43.1400795,-80.2549591,85,https://www.gotransit.com/en/stations-stops-parking/find-a-station-or-stop/results?stationCode=02615,0,,,2,GO
2614,102614,Colborne St E. @ Kiwanis Way,,43.1404762,-80.2400513,85,https://www.gotransit.com/en/stations-stops-parking/find-a-station-or-stop/results?stationCode=02614,0,,,1,GO
2613,102613,Colborne St. E. @ Puleston St.,,43.1405792,-80.2406311,85,https://www.gotransit.com/en/stations-stops-parking/find-a-station-or-stop/results?stationCode=02613,0,,,1,GO
2612,102612,Wayne Gretzky Pkwy. @ Chatham St.,,43.144886,-80.2353592,85,https://www.gotransit.com/en/stations-stops-parking/find-a-station-or-stop/results?stationCode=02612,0,,,1,GO
2611,102611,Wayne Gretzky Pkwy. @ Chatham St.,,43.1449928,-80.2356873,85,https://www.gotransit.com/en/stations-stops-parking/find-a-station-or-stop/results?stationCode=02611,0,,,1,GO
2610,102610,Wayne Gretzky Pkwy. @ Elgin St.,,43.1499977,-80.2378159,85,https://www.gotransit.com/en/stations-stops-parking/find-a-station-or-stop/results?stationCode=02610,0,,,1,GO
2609,102609,Wayne Gretzky Pkwy. @ Elgin St.,,43.1501236,-80.2375336,85,https://www.gotransit.com/en/stations-stops-parking/find-a-station-or-stop/results?stationCode=02609,0,,,1,GO
2608,102608,Wayne Gretzky Pkwy. @ Henry St.,,43.1544113,-80.2391205,85,https://www.gotransit.com/en/stations-stops-parking/find-a-station-or-stop/results?stationCode=02608,0,,,1,GO
2607,102607,Wayne Gretzky Pwky. @ Henry St.,,43.1545525,-80.2395554,85,https://www.gotransit.com/en/stations-stops-parking/find-a-station-or-stop/results?stationCode=02607,0,,,1,GO
2605,102605,Hespeler Rd. @ Pinebush Rd.,,43.4089508,-80.3281174,26,https://www.gotransit.com/en/stations-stops-parking/find-a-station-or-stop/results?stationCode=02605,0,,,1,GO
2598,102598,6700 Millcreek Dr. @ Aquitaine Ave.,,43.5951157,-79.7525024,22,https://www.gotransit.com/en/stations-stops-parking/find-a-station-or-stop/results?stationCode=02598,0,,,1,GO
2597,102597,6715 Millcreek Dr. @ Aquitaine Ave. (Millcreek Business Centre),,43.5951004,-79.7512894,22,https://www.gotransit.com/en/stations-stops-parking/find-a-station-or-stop/results?stationCode=02597,0,,,1,GO
2596,102596,Yonge St. @ Davis Dr. (Upper Canada Mall),,44.0550804,-79.4807053,64,https://www.gotransit.com/en/stations-stops-parking/find-a-station-or-stop/results?stationCode=02596,0,,,1,GO
2595,102595,Yonge St. @ Line 11,,44.1623192,-79.5767288,66,https://www.gotransit.com/en/stations-stops-parking/find-a-station-or-stop/results?stationCode=02595,0,,,2,GO
2594,102594,Yonge St. @ Line 11,,44.16325,-79.5767746,66,https://www.gotransit.com/en/stations-stops-parking/find-a-station-or-stop/results?stationCode=02594,0,,,2,GO
2593,102593,Yonge St. @ Line 13,,44.1866646,-79.5825729,66,https://www.gotransit.com/en/stations-stops-parking/find-a-station-or-stop/results?stationCode=02593,0,,,2,GO
2592,102592,Yonge St. @ Line 13,,44.1873474,-79.5825195,66,https://www.gotransit.com/en/stations-stops-parking/find-a-station-or-stop/results?stationCode=02592,0,,,2,GO
2587,102587,Dupont Meadow Pl. @ Mississauga Rd.,,43.6081848,-79.7510834,22,https://www.gotransit.com/en/stations-stops-parking/find-a-station-or-stop/results?stationCode=02587,0,,,2,GO
2586,102586,Financial Dr. @ Syntex Crt.,,43.61103735,-79.74882046,22,https://www.gotransit.com/en/stations-stops-parking/find-a-station-or-stop/results?stationCode=02586,0,,,2,GO
2581,102581,Albert St. S. @ Jones St.,,44.2612915,-79.0663376,54,https://www.gotransit.com/en/stations-stops-parking/find-a-station-or-stop/results?stationCode=02581,0,,,2,GO
2580,102580,Major Mackenzie Dr. E. @ Cedar Ave.,,43.8734169,-79.4278793,50,https://www.gotransit.com/en/stations-stops-parking/find-a-station-or-stop/results?stationCode=02580,0,,,1,GO
2579,102579,Major Mackenzie Dr. E. @ Cedar Ave.,,43.8731232,-79.4284439,50,https://www.gotransit.com/en/stations-stops-parking/find-a-station-or-stop/results?stationCode=02579,0,,,2,GO
2577,102577,Yonge St. @ 4th Line (Churchill Community Centre),,44.2538338,-79.6016998,67,https://www.gotransit.com/en/stations-stops-parking/find-a-station-or-stop/results?stationCode=02577,0,,,1,GO
2576,102576,Kingston Rd. @ Fairport Rd.,,43.8238487,-79.1063309,91,https://www.gotransit.com/en/stations-stops-parking/find-a-station-or-stop/results?stationCode=02576,0,,,1,GO
2575,102575,Markham Rd. @ Castlemore Ave.,,43.9040985,-79.2667618,73,https://www.gotransit.com/en/stations-stops-parking/find-a-station-or-stop/results?stationCode=02575,0,,,1,GO
2574,102574,Markham Rd. @ Castlemore Ave.,,43.9044647,-79.2672577,73,https://www.gotransit.com/en/stations-stops-parking/find-a-station-or-stop/results?stationCode=02574,0,,,1,GO
2573,102573,Victoria St. @ Thickson Rd. (Thickson Ridge Power Centre),,43.8673973,-78.8993225,93,https://www.gotransit.com/en/stations-stops-parking/find-a-station-or-stop/results?stationCode=02573,0,,,1,GO
2572,102572,Victoria St. @ Thickson Rd. (Thickson Ridge Power Centre),,43.86726,-78.9002914,93,https://www.gotransit.com/en/stations-stops-parking/find-a-station-or-stop/results?stationCode=02572,0,,,2,GO
2571,102571,Kingston Rd. @ Glenanna Rd.,,43.8386154,-79.0863266,91,https://www.gotransit.com/en/stations-stops-parking/find-a-station-or-stop/results?stationCode=02571,0,,,1,GO
2567,102567,Hurontario St. @ Old School Rd.,,43.753563,-79.851234,41,https://www.gotransit.com/en/stations-stops-parking/find-a-station-or-stop/results?stationCode=02567,0,,,1,GO
2546,102546,Hurontario St. @ Old School Rd.,,43.753716,-79.851891,41,https://www.gotransit.com/en/stations-stops-parking/find-a-station-or-stop/results?stationCode=02546,0,,,2,GO
2545,102545,Markham Rd. @ Edward Jeffreys Ave.,,43.895947,-79.264854,73,https://www.gotransit.com/en/stations-stops-parking/find-a-station-or-stop/results?stationCode=02545,0,,,1,GO
2544,102544,Markham Rd. @ Edward Jeffreys Ave.,,43.896362,-79.265251,73,https://www.gotransit.com/en/stations-stops-parking/find-a-station-or-stop/results?stationCode=02544,0,,,1,GO
2543,102543,Simcoe St. N. @ Parkwood Crt.,,43.905807,-78.867111,94,https://www.gotransit.com/en/stations-stops-parking/find-a-station-or-stop/results?stationCode=02543,0,,,2,GO
2542,102542,Simcoe St. N. @ Parkwood Crt.,,43.905533,-78.867271,94,https://www.gotransit.com/en/stations-stops-parking/find-a-station-or-stop/results?stationCode=02542,0,,,1,GO
2541,102541,Morningside Ave. @ Tams Rd.,,43.791924,-79.195305,89,https://www.gotransit.com/en/stations-stops-parking/find-a-station-or-stop/results?stationCode=02541,0,,,1,GO
2540,102540,Morningside Ave. @ Tams Rd.,,43.792179,-79.19574,89,https://www.gotransit.com/en/stations-stops-parking/find-a-station-or-stop/results?stationCode=02540,0,,,1,GO
2539,102539,Brock Rd. @ Hwy. 407 Park & Ride,,43.912596,-79.097042,86,https://www.gotransit.com/en/stations-stops-parking/find-a-station-or-stop/results?stationCode=02539,0,,,1,GO
2538,102538,Davis Dr. @ Hwy. 404 Park & Ride,,44.0676956,-79.4215164,64,https://www.gotransit.com/en/stations-stops-parking/find-a-station-or-stop/results?stationCode=02538,0,,,1,GO
2537,102537,Barrie St. @ Doctors Lane,,44.115643,-79.565002,65,https://www.gotransit.com/en/stations-stops-parking/find-a-station-or-stop/results?stationCode=02537,0,,,1,GO
2535,102535,Hwy. 50 @ Ebenezer Rd.,,43.777973,-79.654884,56,https://www.gotransit.com/en/stations-stops-parking/find-a-station-or-stop/results?stationCode=02535,0,,,1,GO
2534,102534,Hwy. 50 @ Ebenezer Rd.,,43.779167,-79.655106,56,https://www.gotransit.com/en/stations-stops-parking/find-a-station-or-stop/results?stationCode=02534,0,,,1,GO
2533,102533,Hwy. 50 @ Queen St. E.,,43.768192,-79.648849,56,https://www.gotransit.com/en/stations-stops-parking/find-a-station-or-stop/results?stationCode=02533,0,,,1,GO
2532,102532,King St. W. @ Scugog St.,,43.9128571,-78.6923294,96,https://www.gotransit.com/en/stations-stops-parking/find-a-station-or-stop/results?stationCode=02532,0,,,2,GO
2531,102531,Weber St. E. @ Queen St. N.,,43.451828,-80.4870758,27,https://www.gotransit.com/en/stations-stops-parking/find-a-station-or-stop/results?stationCode=02531,0,,,1,GO
2530,102530,Weber St. W. @ Queen St. N.,,43.4519386,-80.4876175,27,https://www.gotransit.com/en/stations-stops-parking/find-a-station-or-stop/results?stationCode=02530,0,,,1,GO
2528,102528,Mountainview Rd. N. @ Maple Ave.,,43.6555405,-79.9107971,35,https://www.gotransit.com/en/stations-stops-parking/find-a-station-or-stop/results?stationCode=02528,0,,,2,GO
2523,102523,Queensville Sdrd. @ Hwy. 404 Park & Ride,,44.1420212,-79.4405518,45,https://www.gotransit.com/en/stations-stops-parking/find-a-station-or-stop/results?stationCode=02523,0,,,1,GO
2522,102522,Woodbine Ave. @ Hwy. 404 Park & Ride,,44.1918488,-79.4372101,46,https://www.gotransit.com/en/stations-stops-parking/find-a-station-or-stop/results?stationCode=02522,0,,,1,GO
2521,102521,Wellington St. E. @ Mary St.,,44.0031967,-79.451149,63,https://www.gotransit.com/en/stations-stops-parking/find-a-station-or-stop/results?stationCode=02521,0,,,2,GO
2520,102520,Wellington St. E. @ John West Way,,44.0035057,-79.4506836,63,https://www.gotransit.com/en/stations-stops-parking/find-a-station-or-stop/results?stationCode=02520,0,,,1,GO
2519,102519,Guelph Central GO Bus,,43.544932,-80.246388,39,https://www.gotransit.com/en/stations-stops-parking/find-a-station-or-stop/results?stationCode=02519,0,,,1,GO
2518,102518,MacDonell St. @ Carden St. (Guelph Central GO),,43.5463142,-80.2452316,39,https://www.gotransit.com/en/stations-stops-parking/find-a-station-or-stop/results?stationCode=02518,0,,,1,GO
2513,102513,Blind Line @ College Ave.,,43.9221954,-80.1162033,43,https://www.gotransit.com/en/stations-stops-parking/find-a-station-or-stop/results?stationCode=02513,0,,,2,GO
2512,102512,Blind Line @ Hansen Blvd.,,43.9247589,-80.1168442,43,https://www.gotransit.com/en/stations-stops-parking/find-a-station-or-stop/results?stationCode=02512,0,,,1,GO
2511,102511,Queen St. E. @ West Dr.,,43.7095222,-79.733696,32,https://www.gotransit.com/en/stations-stops-parking/find-a-station-or-stop/results?stationCode=02511,0,,,2,GO
2508,102508,Derry Rd. W. @ Ninth Line,,43.574543,-79.78685,22,https://www.gotransit.com/en/stations-stops-parking/find-a-station-or-stop/results?stationCode=02508,0,,,2,GO
2505,102505,Hwy. 35 @ Hwy. 115 Park & Ride,,44.064003,-78.6258087,28,https://www.gotransit.com/en/stations-stops-parking/find-a-station-or-stop/results?stationCode=02505,0,,,1,GO
2504,102504,Peterborough Rd. 10 @ Hwy. 115 Park & Ride,,44.1872025,-78.4643936,29,https://www.gotransit.com/en/stations-stops-parking/find-a-station-or-stop/results?stationCode=02504,0,,,1,GO
2503,102503,Crawford Dr. @ Harper Rd. Park & Ride,,44.2678642,-78.3492737,30,https://www.gotransit.com/en/stations-stops-parking/find-a-station-or-stop/results?stationCode=02503,0,,,1,GO
2502,102502,Peterborough Bus Terminal,,44.3045998,-78.3224182,30,https://www.gotransit.com/en/stations-stops-parking/find-a-station-or-stop/results?stationCode=02502,0,,,1,GO
2501,102501,Trent University,,44.3569412,-78.2870331,30,https://www.gotransit.com/en/stations-stops-parking/find-a-station-or-stop/results?stationCode=02501,0,,,1,GO
2414,102414,City Centre Dr. @ Mercer St.,,43.5895958,-79.6420135,20,https://www.gotransit.com/en/stations-stops-parking/find-a-station-or-stop/results?stationCode=02414,0,,,1,GO
2413,102413,Georgetown GO Bus,,43.6560287,-79.9186783,35,https://www.gotransit.com/en/stations-stops-parking/find-a-station-or-stop/results?stationCode=02413,0,,,1,GO
2412,102412,Main St. S. @ Ridge Rd.,,43.61085,-80.13266,38,https://www.gotransit.com/en/stations-stops-parking/find-a-station-or-stop/results?stationCode=02412,0,,,2,GO
2408,102408,Niagara Falls Bus Terminal,,43.1085358,-79.0636063,84,https://www.gotransit.com/en/stations-stops-parking/find-a-station-or-stop/results?stationCode=02408,0,,,1,GO
2407,102407,Scarborough Centre Bus Terminal,,43.7746925,-79.2563095,7,https://www.gotransit.com/en/stations-stops-parking/find-a-station-or-stop/results?stationCode=02407,0,,,1,GO
2406,102406,Casablanca Blvd. @ QEW Park & Ride,,43.2047997,-79.5964279,81,https://www.gotransit.com/en/stations-stops-parking/find-a-station-or-stop/results?stationCode=02406,0,,,1,GO
2405,102405,Stanley Ave. @ Hwy. 420 Park & Ride,,43.097245,-79.08507,84,https://www.gotransit.com/en/stations-stops-parking/find-a-station-or-stop/results?stationCode=02405,0,,,1,GO
2404,102404,Stanley Ave. @ Hwy. 420 Park & Ride,,43.097075,-79.084885,84,https://www.gotransit.com/en/stations-stops-parking/find-a-station-or-stop/results?stationCode=02404,0,,,1,GO
2402,102402,St. Catharines Fairview Mall,,43.178627,-79.2452545,83,https://www.gotransit.com/en/stations-stops-parking/find-a-station-or-stop/results?stationCode=02402,0,,,1,GO
2300,102300,Union Station Bus Terminal,,43.644042,-79.376939,2,https://www.gotransit.com/en/stations-stops-parking/find-a-station-or-stop/results?stationCode=02300,0,,,1,GO
2216,102216,Erin Mills Transitway,,43.5522194,-79.7003632,21,https://www.gotransit.com/en/stations-stops-parking/find-a-station-or-stop/results?stationCode=02216,0,,,1,GO
2215,102215,Erin Mills Transitway Station,,43.552124,-79.7004547,21,https://www.gotransit.com/en/stations-stops-parking/find-a-station-or-stop/results?stationCode=02215,0,,,1,GO
2214,102214,Erin Mills Transitway Station,,43.5520363,-79.7003021,21,https://www.gotransit.com/en/stations-stops-parking/find-a-station-or-stop/results?stationCode=02214,0,,,1,GO
2213,102213,Erin Mills Transitway Station,,43.552124,-79.7004547,21,https://www.gotransit.com/en/stations-stops-parking/find-a-station-or-stop/results?stationCode=02213,0,,,1,GO
2210,102210,Erin Mills Transitway Station,,43.5520363,-79.7003021,21,https://www.gotransit.com/en/stations-stops-parking/find-a-station-or-stop/results?stationCode=02210,0,,,1,GO
2209,102209,Renforth Dr. @ Convair Dr.,,43.6723671,-79.5936432,31,https://www.gotransit.com/en/stations-stops-parking/find-a-station-or-stop/results?stationCode=02209,0,,,2,GO
2208,102208,Renforth Dr. @ Convair Dr.,,43.6720657,-79.5930939,31,https://www.gotransit.com/en/stations-stops-parking/find-a-station-or-stop/results?stationCode=02208,0,,,1,GO
2205,102205,Weber St. E. @ Montgomery Rd.,,43.4387054,-80.4595566,27,https://www.gotransit.com/en/stations-stops-parking/find-a-station-or-stop/results?stationCode=02205,0,,,2,GO
2204,102204,Weber St. E. @ Montgomery Rd.,,43.4387245,-80.4601898,27,https://www.gotransit.com/en/stations-stops-parking/find-a-station-or-stop/results?stationCode=02204,0,,,2,GO
2202,102202,Yonge St. @ Victoria St.,,44.3249016,-79.6195755,68,https://www.gotransit.com/en/stations-stops-parking/find-a-station-or-stop/results?stationCode=02202,0,,,1,GO
2194,102194,Main St. @ Westlawn Cres.,,43.9685707,-79.2601318,74,https://www.gotransit.com/en/stations-stops-parking/find-a-station-or-stop/results?stationCode=02194,0,,,2,GO
2193,102193,Main St. @ Weldon Rd.,,43.9682426,-79.2604752,74,https://www.gotransit.com/en/stations-stops-parking/find-a-station-or-stop/results?stationCode=02193,0,,,1,GO
2192,102192,Main St. @ Sandale Rd.,,43.9662666,-79.2703018,74,https://www.gotransit.com/en/stations-stops-parking/find-a-station-or-stop/results?stationCode=02192,0,,,2,GO
2191,102191,Main St. @ Sandiford Dr.,,43.9659386,-79.2708511,74,https://www.gotransit.com/en/stations-stops-parking/find-a-station-or-stop/results?stationCode=02191,0,,,1,GO
2190,102190,Hwy. 48 @ Hoover Park Dr.,,43.9569321,-79.2795105,74,https://www.gotransit.com/en/stations-stops-parking/find-a-station-or-stop/results?stationCode=02190,0,,,2,GO
2189,102189,Hwy. 48 @ Hoover Park Dr.,,43.9565964,-79.2791214,74,https://www.gotransit.com/en/stations-stops-parking/find-a-station-or-stop/results?stationCode=02189,0,,,2,GO
2186,102186,Kitchener GO Bus,,43.455573,-80.492543,27,https://www.gotransit.com/en/stations-stops-parking/find-a-station-or-stop/results?stationCode=02186,0,,,1,GO
2185,102185,Main St. W. @ Haddon Ave. S.,,43.258091,-79.91185,18,https://www.gotransit.com/en/stations-stops-parking/find-a-station-or-stop/results?stationCode=02185,0,,,1,GO
2184,102184,Sportsworld Dr. @ Hwy. 8 Park & Ride,,43.4099274,-80.3925095,26,https://www.gotransit.com/en/stations-stops-parking/find-a-station-or-stop/results?stationCode=02184,0,,,1,GO
2178,102178,Main St. @ Tenth Line,,43.9750862,-79.2313843,74,https://www.gotransit.com/en/stations-stops-parking/find-a-station-or-stop/results?stationCode=02178,0,,,2,GO
2177,102177,Main St. @ Tenth Line,,43.9745674,-79.2321472,74,https://www.gotransit.com/en/stations-stops-parking/find-a-station-or-stop/results?stationCode=02177,0,,,2,GO
2176,102176,Keele St. @ Peak Point Blvd.,,43.8872604,-79.5200119,62,https://www.gotransit.com/en/stations-stops-parking/find-a-station-or-stop/results?stationCode=02176,0,,,2,GO
2175,102175,Keele St. @ Peak Point Blvd.,,43.8868027,-79.5196609,62,https://www.gotransit.com/en/stations-stops-parking/find-a-station-or-stop/results?stationCode=02175,0,,,1,GO
2174,102174,Williams Pkwy. @ Hwy. 410 Park & Ride,,43.716468,-79.751376,32,https://www.gotransit.com/en/stations-stops-parking/find-a-station-or-stop/results?stationCode=02174,0,,,1,GO
2173,102173,Keele St. @ Kirby Rd.,,43.8918114,-79.5210342,62,https://www.gotransit.com/en/stations-stops-parking/find-a-station-or-stop/results?stationCode=02173,0,,,2,GO
2172,102172,Keele St. @ Kirby Rd.,,43.8916321,-79.5207977,62,https://www.gotransit.com/en/stations-stops-parking/find-a-station-or-stop/results?stationCode=02172,0,,,2,GO
2171,102171,Tenth Line @ Sleepy Hollow Ln.,,44.0002556,-79.2371979,74,https://www.gotransit.com/en/stations-stops-parking/find-a-station-or-stop/results?stationCode=02171,0,,,2,GO
2170,102170,Tenth Line @ Sleepy Hollow Ln.,,44.0000153,-79.2369232,74,https://www.gotransit.com/en/stations-stops-parking/find-a-station-or-stop/results?stationCode=02170,0,,,2,GO
2163,102163,Trafalgar Rd. @ Hwy. 407 Park & Ride,,43.506545,-79.745813,13,https://www.gotransit.com/en/stations-stops-parking/find-a-station-or-stop/results?stationCode=02163,0,,,1,GO
2162,102162,Hwy. 2 @ Hwy. 35/115 Park & Ride,,43.91301,-78.612533,97,https://www.gotransit.com/en/stations-stops-parking/find-a-station-or-stop/results?stationCode=02162,0,,,1,GO
2160,102160,Bradford GO Bus,,44.116654,-79.555752,65,https://www.gotransit.com/en/stations-stops-parking/find-a-station-or-stop/results?stationCode=02160,0,,,1,GO
2159,102159,Keele St. @ Church St.,,43.852829,-79.5120239,61,https://www.gotransit.com/en/stations-stops-parking/find-a-station-or-stop/results?stationCode=02159,0,,,2,GO
2158,102158,Major Mackenzie Dr. E. @ Keele St.,,43.8550568,-79.5116119,61,https://www.gotransit.com/en/stations-stops-parking/find-a-station-or-stop/results?stationCode=02158,0,,,1,GO
2157,102157,Maple GO Bus,,43.859853,-79.505926,61,https://www.gotransit.com/en/stations-stops-parking/find-a-station-or-stop/results?stationCode=02157,0,,,1,GO
2153,102153,Wilfrid Laurier University,,43.4752655,-80.5272827,27,https://www.gotransit.com/en/stations-stops-parking/find-a-station-or-stop/results?stationCode=02153,0,,,2,GO
2151,102151,Regional Rd. 25 @ Hwy. 401 Park & Ride,,43.5274849,-79.9038162,24,https://www.gotransit.com/en/stations-stops-parking/find-a-station-or-stop/results?stationCode=02151,0,,,1,GO
2150,102150,Cambridge Smart Centre,,43.4117165,-80.3236008,26,https://www.gotransit.com/en/stations-stops-parking/find-a-station-or-stop/results?stationCode=02150,0,,,2,GO
2148,102148,Wilfrid Laurier University,,43.4751816,-80.5279999,27,https://www.gotransit.com/en/stations-stops-parking/find-a-station-or-stop/results?stationCode=02148,0,,,1,GO
2147,102147,University of Waterloo,,43.4731293,-80.541687,27,https://www.gotransit.com/en/stations-stops-parking/find-a-station-or-stop/results?stationCode=02147,0,,,1,GO
2145,102145,Yonge St. @ London Rd.,,44.0641289,-79.4824982,64,https://www.gotransit.com/en/stations-stops-parking/find-a-station-or-stop/results?stationCode=02145,0,,,1,GO
2144,102144,YMCA Blvd. @ Kennedy Rd.,,43.8535728,-79.3085709,71,https://www.gotransit.com/en/stations-stops-parking/find-a-station-or-stop/results?stationCode=02144,0,,,2,GO
2141,102141,YMCA Blvd. @ Kennedy Rd.,,43.8532639,-79.3093185,71,https://www.gotransit.com/en/stations-stops-parking/find-a-station-or-stop/results?stationCode=02141,0,,,2,GO
2139,102139,Keele St. @ Barrhill Rd.,,43.8502159,-79.5112076,61,https://www.gotransit.com/en/stations-stops-parking/find-a-station-or-stop/results?stationCode=02139,0,,,1,GO
2127,102127,Yonge St. @ Clark Ave. E.,,43.8069839,-79.4221497,60,https://www.gotransit.com/en/stations-stops-parking/find-a-station-or-stop/results?stationCode=02127,0,,,2,GO
2126,102126,Main St. @ Stouffer St.,,43.9733505,-79.2380981,74,https://www.gotransit.com/en/stations-stops-parking/find-a-station-or-stop/results?stationCode=02126,0,,,2,GO
2118,102118,Yonge St. @ Mortonvale Dr.,,44.1003456,-79.4911728,65,https://www.gotransit.com/en/stations-stops-parking/find-a-station-or-stop/results?stationCode=02118,0,,,1,GO
2117,102117,Tenth Line @ Aintree Dr.,,43.9778366,-79.2319031,74,https://www.gotransit.com/en/stations-stops-parking/find-a-station-or-stop/results?stationCode=02117,0,,,2,GO
2116,102116,Queen St. N. @ Columbia Way,,43.8915863,-79.754982,58,https://www.gotransit.com/en/stations-stops-parking/find-a-station-or-stop/results?stationCode=02116,0,,,2,GO
2113,102113,Hwy. 48 @ 16th Ave.,,43.8920631,-79.2641983,73,https://www.gotransit.com/en/stations-stops-parking/find-a-station-or-stop/results?stationCode=02113,0,,,2,GO
2112,102112,Main St. N. @ 16th Ave.,,43.8919067,-79.2639542,72,https://www.gotransit.com/en/stations-stops-parking/find-a-station-or-stop/results?stationCode=02112,0,,,2,GO
2111,102111,Bullock Dr. @ Laidlaw Blvd.,,43.8744316,-79.2800446,72,https://www.gotransit.com/en/stations-stops-parking/find-a-station-or-stop/results?stationCode=02111,0,,,2,GO
2110,102110,Bullock Dr. @ Laidlaw Blvd.,,43.874855,-79.2794647,72,https://www.gotransit.com/en/stations-stops-parking/find-a-station-or-stop/results?stationCode=02110,0,,,2,GO
2109,102109,Bullock Dr. @ McCowan Rd.,,43.8729172,-79.2848587,72,https://www.gotransit.com/en/stations-stops-parking/find-a-station-or-stop/results?stationCode=02109,0,,,2,GO
2108,102108,Bullock Dr. @ McCowan Rd.,,43.8728409,-79.2855911,72,https://www.gotransit.com/en/stations-stops-parking/find-a-station-or-stop/results?stationCode=02108,0,,,1,GO
2107,102107,Upper Canada Mall,,44.0579948,-79.4808884,64,https://www.gotransit.com/en/stations-stops-parking/find-a-station-or-stop/results?stationCode=02107,0,,,2,GO
2105,102105,Yonge St. @ Green Ln. W. (Green Lane Centre),,44.0712051,-79.4845886,64,https://www.gotransit.com/en/stations-stops-parking/find-a-station-or-stop/results?stationCode=02105,0,,,1,GO
2104,102104,Yonge St. @ Green Ln. E. (Silver City),,44.0705605,-79.4841385,64,https://www.gotransit.com/en/stations-stops-parking/find-a-station-or-stop/results?stationCode=02104,0,,,1,GO
2101,102101,Yonge St. @ Spruce Ave.,,43.8511429,-79.4323959,60,https://www.gotransit.com/en/stations-stops-parking/find-a-station-or-stop/results?stationCode=02101,0,,,2,GO
2100,102100,Yonge St. @ Yongehurst Dr.,,43.8627815,-79.4354706,50,https://www.gotransit.com/en/stations-stops-parking/find-a-station-or-stop/results?stationCode=02100,0,,,2,GO
2096,102096,Yonge St. @ Weldrick Rd. W.,,43.8605232,-79.4349365,50,https://www.gotransit.com/en/stations-stops-parking/find-a-station-or-stop/results?stationCode=02096,0,,,2,GO
2095,102095,Yonge St. @ Weldrick Rd. E.,,43.859993,-79.4343033,50,https://www.gotransit.com/en/stations-stops-parking/find-a-station-or-stop/results?stationCode=02095,0,,,1,GO
2092,102092,Yonge St. @ Uplands Ave.,,43.8269348,-79.4267807,60,https://www.gotransit.com/en/stations-stops-parking/find-a-station-or-stop/results?stationCode=02092,0,,,1,GO
2088,102088,Yonge St. @ Thornhill Ave.,,43.8253212,-79.4267273,60,https://www.gotransit.com/en/stations-stops-parking/find-a-station-or-stop/results?stationCode=02088,0,,,1,GO
2081,102081,Yonge St. @ Scott Dr.,,43.8467216,-79.4316711,60,https://www.gotransit.com/en/stations-stops-parking/find-a-station-or-stop/results?stationCode=02081,0,,,1,GO
2079,102079,Yonge St. @ Royal Orchard Blvd.,,43.8227158,-79.4257965,60,https://www.gotransit.com/en/stations-stops-parking/find-a-station-or-stop/results?stationCode=02079,0,,,2,GO
2078,102078,Yonge St. @ Royal Orchard Blvd.,,43.8223343,-79.426033,60,https://www.gotransit.com/en/stations-stops-parking/find-a-station-or-stop/results?stationCode=02078,0,,,1,GO
2072,102072,Yonge St. @ Observatory Ln.,,43.8581696,-79.4340744,50,https://www.gotransit.com/en/stations-stops-parking/find-a-station-or-stop/results?stationCode=02072,0,,,1,GO
2071,102071,Yonge St. @ Oak Ave.,,43.8500443,-79.4324112,60,https://www.gotransit.com/en/stations-stops-parking/find-a-station-or-stop/results?stationCode=02071,0,,,1,GO
2069,102069,Yonge St. @ Northern Heights Dr.,,43.849144,-79.4318695,60,https://www.gotransit.com/en/stations-stops-parking/find-a-station-or-stop/results?stationCode=02069,0,,,2,GO
2068,102068,Yonge St. @ North St.,,44.0976105,-79.4905701,65,https://www.gotransit.com/en/stations-stops-parking/find-a-station-or-stop/results?stationCode=02068,0,,,2,GO
2067,102067,Yonge St. @ North St.,,44.0978394,-79.4906998,65,https://www.gotransit.com/en/stations-stops-parking/find-a-station-or-stop/results?stationCode=02067,0,,,2,GO
2058,102058,Yonge St. @ Meadowview Ave.,,43.8020096,-79.4213104,60,https://www.gotransit.com/en/stations-stops-parking/find-a-station-or-stop/results?stationCode=02058,0,,,1,GO
2057,102057,Yonge St. @ May Ave.,,43.8640823,-79.4357605,50,https://www.gotransit.com/en/stations-stops-parking/find-a-station-or-stop/results?stationCode=02057,0,,,2,GO
2056,102056,Yonge St. @ May Ave.,,43.8639069,-79.435379,50,https://www.gotransit.com/en/stations-stops-parking/find-a-station-or-stop/results?stationCode=02056,0,,,1,GO
2052,102052,Yonge St. @ Major Mackenzie Dr. E.,,43.8708229,-79.4369049,50,https://www.gotransit.com/en/stations-stops-parking/find-a-station-or-stop/results?stationCode=02052,0,,,2,GO
2046,102046,Yonge St. @ Kingston Rd.,,44.0609932,-79.4816971,64,https://www.gotransit.com/en/stations-stops-parking/find-a-station-or-stop/results?stationCode=02046,0,,,2,GO
2043,102043,Yonge St. @ John St.,,43.8139114,-79.4238434,60,https://www.gotransit.com/en/stations-stops-parking/find-a-station-or-stop/results?stationCode=02043,0,,,2,GO
2042,102042,Yonge St. @ Thornridge Dr.,,43.8135796,-79.4240112,60,https://www.gotransit.com/en/stations-stops-parking/find-a-station-or-stop/results?stationCode=02042,0,,,2,GO
2036,102036,Yonge St. @ Hwy. 407,,43.8365974,-79.4293518,60,https://www.gotransit.com/en/stations-stops-parking/find-a-station-or-stop/results?stationCode=02036,0,,,2,GO
2035,102035,Yonge St. @ Hopkins St.,,43.8696709,-79.4370117,50,https://www.gotransit.com/en/stations-stops-parking/find-a-station-or-stop/results?stationCode=02035,0,,,1,GO
2033,102033,Yonge St. @ High Tech Rd.,,43.8415108,-79.4304962,60,https://www.gotransit.com/en/stations-stops-parking/find-a-station-or-stop/results?stationCode=02033,0,,,2,GO
2032,102032,Yonge St. @ High Tech Rd.,,43.8413315,-79.4300156,60,https://www.gotransit.com/en/stations-stops-parking/find-a-station-or-stop/results?stationCode=02032,0,,,1,GO
2029,102029,Yonge St. @ Harding Blvd. W.,,43.8667831,-79.4363785,50,https://www.gotransit.com/en/stations-stops-parking/find-a-station-or-stop/results?stationCode=02029,0,,,2,GO
2028,102028,Yonge St. @ Harding Blvd.,,43.8663788,-79.4359741,50,https://www.gotransit.com/en/stations-stops-parking/find-a-station-or-stop/results?stationCode=02028,0,,,2,GO
2027,102027,Yonge St. @ Green Ln. E.,,44.0726738,-79.4845963,64,https://www.gotransit.com/en/stations-stops-parking/find-a-station-or-stop/results?stationCode=02027,0,,,1,GO
2024,102024,Yonge St. @ Glen Cameron Rd.,,43.8051033,-79.4217148,60,https://www.gotransit.com/en/stations-stops-parking/find-a-station-or-stop/results?stationCode=02024,0,,,1,GO
2023,102023,Yonge St. @ Glen Cameron Rd.,,43.8057404,-79.4222031,60,https://www.gotransit.com/en/stations-stops-parking/find-a-station-or-stop/results?stationCode=02023,0,,,2,GO
2021,102021,Yonge St. @ Garden Ave.,,43.8384552,-79.4297791,60,https://www.gotransit.com/en/stations-stops-parking/find-a-station-or-stop/results?stationCode=02021,0,,,1,GO
2019,102019,Yonge St. @ Elmwood Ave.,,43.8692818,-79.4366684,50,https://www.gotransit.com/en/stations-stops-parking/find-a-station-or-stop/results?stationCode=02019,0,,,2,GO
2018,102018,Yonge St. @ Elgin St.,,43.810688,-79.4231033,60,https://www.gotransit.com/en/stations-stops-parking/find-a-station-or-stop/results?stationCode=02018,0,,,1,GO
2015,102015,Yonge St. @ Edgar Ave.,,43.8484573,-79.4321365,60,https://www.gotransit.com/en/stations-stops-parking/find-a-station-or-stop/results?stationCode=02015,0,,,2,GO
2012,102012,Yonge St. @ Doncaster Ave.,,43.8016968,-79.4208908,60,https://www.gotransit.com/en/stations-stops-parking/find-a-station-or-stop/results?stationCode=02012,0,,,1,GO
2010,102010,Yonge St. @ Dawson Manor Blvd.,,44.0614586,-79.4821243,64,https://www.gotransit.com/en/stations-stops-parking/find-a-station-or-stop/results?stationCode=02010,0,,,1,GO
2004,102004,Yonge St. @ Clark Ave. W.,,43.807312,-79.4226227,60,https://www.gotransit.com/en/stations-stops-parking/find-a-station-or-stop/results?stationCode=02004,0,,,1,GO
2003,102003,Yonge St. @ Clarissa Dr.,,43.8620453,-79.4350204,50,https://www.gotransit.com/en/stations-stops-parking/find-a-station-or-stop/results?stationCode=02003,0,,,1,GO
1998,101998,Yonge St. @ Centre St.,,43.8164711,-79.4247208,60,https://www.gotransit.com/en/stations-stops-parking/find-a-station-or-stop/results?stationCode=01998,0,,,1,GO
1997,101997,Yonge St. @ Bunker Rd.,,43.8288956,-79.4272919,60,https://www.gotransit.com/en/stations-stops-parking/find-a-station-or-stop/results?stationCode=01997,0,,,1,GO
1996,101996,Yonge St. @ Bunker Rd.,,43.8289528,-79.4275894,60,https://www.gotransit.com/en/stations-stops-parking/find-a-station-or-stop/results?stationCode=01996,0,,,1,GO
1994,101994,Yonge St. @ Bristol Rd.,,44.0678329,-79.4833374,64,https://www.gotransit.com/en/stations-stops-parking/find-a-station-or-stop/results?stationCode=01994,0,,,1,GO
1993,101993,Yonge St. @ Bonshaw Ave.,,44.0646324,-79.4830322,64,https://www.gotransit.com/en/stations-stops-parking/find-a-station-or-stop/results?stationCode=01993,0,,,1,GO
1988,101988,Yonge St. @ Beresford Dr.,,43.8440056,-79.430687,60,https://www.gotransit.com/en/stations-stops-parking/find-a-station-or-stop/results?stationCode=01988,0,,,1,GO
1987,101987,Yonge St. @ Bay Thorn Dr.,,43.8248672,-79.4262924,60,https://www.gotransit.com/en/stations-stops-parking/find-a-station-or-stop/results?stationCode=01987,0,,,1,GO
1986,101986,Yonge St. @ Bantry Ave.,,43.846859,-79.4313583,60,https://www.gotransit.com/en/stations-stops-parking/find-a-station-or-stop/results?stationCode=01986,0,,,2,GO
1985,101985,Yonge St. @ Baif Blvd. (Hillcrest Mall),,43.8587418,-79.4345093,50,https://www.gotransit.com/en/stations-stops-parking/find-a-station-or-stop/results?stationCode=01985,0,,,2,GO
1982,101982,Yonge St. @ Aspenwood Dr.,,44.0681725,-79.4838028,64,https://www.gotransit.com/en/stations-stops-parking/find-a-station-or-stop/results?stationCode=01982,0,,,1,GO
1979,101979,Yonge St. @ Carrville Rd.,,43.8532715,-79.4332428,50,https://www.gotransit.com/en/stations-stops-parking/find-a-station-or-stop/results?stationCode=01979,0,,,1,GO
1974,101974,Toll Rd. @ Oriole Dr.,,44.1052742,-79.5132294,65,https://www.gotransit.com/en/stations-stops-parking/find-a-station-or-stop/results?stationCode=01974,0,,,1,GO
1973,101973,Toll Rd. @ Oriole Dr.,,44.1051941,-79.5132675,65,https://www.gotransit.com/en/stations-stops-parking/find-a-station-or-stop/results?stationCode=01973,0,,,1,GO
1972,101972,Toll Rd. @ Centennial Ave.,,44.103157,-79.5050201,65,https://www.gotransit.com/en/stations-stops-parking/find-a-station-or-stop/results?stationCode=01972,0,,,1,GO
1971,101971,Toll Rd. @ Centennial Ave.,,44.1031227,-79.505188,65,https://www.gotransit.com/en/stations-stops-parking/find-a-station-or-stop/results?stationCode=01971,0,,,2,GO
1970,101970,Toll Rd. @ Bradford St.,,44.1004219,-79.4975357,65,https://www.gotransit.com/en/stations-stops-parking/find-a-station-or-stop/results?stationCode=01970,0,,,1,GO
1969,101969,Toll Rd. @ Bradford St.,,44.1004066,-79.4977875,65,https://www.gotransit.com/en/stations-stops-parking/find-a-station-or-stop/results?stationCode=01969,0,,,1,GO
1926,101926,Main St. @ Stouffer St.,,43.9731178,-79.2386246,74,https://www.gotransit.com/en/stations-stops-parking/find-a-station-or-stop/results?stationCode=01926,0,,,2,GO
1925,101925,Main St. @ Market St.,,43.9712067,-79.2472229,74,https://www.gotransit.com/en/stations-stops-parking/find-a-station-or-stop/results?stationCode=01925,0,,,1,GO
1924,101924,Main St. @ Church St. N.,,43.9717598,-79.2452011,74,https://www.gotransit.com/en/stations-stops-parking/find-a-station-or-stop/results?stationCode=01924,0,,,2,GO
1905,101905,Langstaff Rd. E. @ Bayview Ave.,,43.8346367,-79.4062042,60,https://www.gotransit.com/en/stations-stops-parking/find-a-station-or-stop/results?stationCode=01905,0,,,2,GO
1888,101888,Keele St. @ Teston Rd.,,43.8732071,-79.5163879,61,https://www.gotransit.com/en/stations-stops-parking/find-a-station-or-stop/results?stationCode=01888,0,,,1,GO
1887,101887,Keele St. @ Teston Rd.,,43.8736916,-79.5169067,61,https://www.gotransit.com/en/stations-stops-parking/find-a-station-or-stop/results?stationCode=01887,0,,,1,GO
1878,101878,Keele St. @ Drummond Dr.,,43.8680077,-79.5155106,61,https://www.gotransit.com/en/stations-stops-parking/find-a-station-or-stop/results?stationCode=01878,0,,,1,GO
1877,101877,Keele St. @ Drummond Dr.,,43.8673172,-79.5149994,61,https://www.gotransit.com/en/stations-stops-parking/find-a-station-or-stop/results?stationCode=01877,0,,,1,GO
1861,101861,Hwy. 7 @ Swansea Rd.,,43.8641014,-79.2980042,71,https://www.gotransit.com/en/stations-stops-parking/find-a-station-or-stop/results?stationCode=01861,0,,,2,GO
1860,101860,Hwy. 7 @ Swansea Rd.,,43.8637314,-79.2985458,71,https://www.gotransit.com/en/stations-stops-parking/find-a-station-or-stop/results?stationCode=01860,0,,,1,GO
1825,101825,Yonge St. @ Old Yonge St.,,44.082943,-79.4870758,65,https://www.gotransit.com/en/stations-stops-parking/find-a-station-or-stop/results?stationCode=01825,0,,,1,GO
1807,101807,Bullock Dr. @ Hwy. 7,,43.8656082,-79.2921219,71,https://www.gotransit.com/en/stations-stops-parking/find-a-station-or-stop/results?stationCode=01807,0,,,2,GO
1806,101806,Bullock Dr. @ Hwy. 7,,43.8661575,-79.2920685,71,https://www.gotransit.com/en/stations-stops-parking/find-a-station-or-stop/results?stationCode=01806,0,,,2,GO
1805,101805,Bradford St. @ Yonge St.,,44.101223,-79.4919434,65,https://www.gotransit.com/en/stations-stops-parking/find-a-station-or-stop/results?stationCode=01805,0,,,2,GO
1804,101804,Bradford St. @ Olive St.,,44.1012955,-79.49263,65,https://www.gotransit.com/en/stations-stops-parking/find-a-station-or-stop/results?stationCode=01804,0,,,1,GO
1803,101803,Bayview Ave. @ Langstaff Rd. E.,,43.8349037,-79.4053802,60,https://www.gotransit.com/en/stations-stops-parking/find-a-station-or-stop/results?stationCode=01803,0,,,2,GO
1802,101802,Tenth Line @ Aintree Dr.,,43.978157,-79.2320175,74,https://www.gotransit.com/en/stations-stops-parking/find-a-station-or-stop/results?stationCode=01802,0,,,2,GO
1801,101801,Wellington St. E. @ Stronach Blvd.,,44.0072441,-79.4335251,63,https://www.gotransit.com/en/stations-stops-parking/find-a-station-or-stop/results?stationCode=01801,0,,,1,GO
1800,101800,Wellington St. E. @ Mavrinac Blvd.,,44.0076904,-79.4332504,63,https://www.gotransit.com/en/stations-stops-parking/find-a-station-or-stop/results?stationCode=01800,0,,,1,GO
1731,101731,Toronto St. S. @ Mill St.,,44.1039429,-79.1250305,76,https://www.gotransit.com/en/stations-stops-parking/find-a-station-or-stop/results?stationCode=01731,0,,,2,GO
1730,101730,Toronto St. @ Elgin Park Dr.,,44.0970039,-79.1285248,76,https://www.gotransit.com/en/stations-stops-parking/find-a-station-or-stop/results?stationCode=01730,0,,,2,GO
1729,101729,Trafalgar Rd. @ Leighland Ave.,,43.4647789,-79.6880264,13,https://www.gotransit.com/en/stations-stops-parking/find-a-station-or-stop/results?stationCode=01729,0,,,2,GO
1728,101728,Trafalgar Rd. @ Rosegate Way,,43.4822998,-79.7117538,13,https://www.gotransit.com/en/stations-stops-parking/find-a-station-or-stop/results?stationCode=01728,0,,,2,GO
1727,101727,Trafalgar Rd. @ White Oaks Blvd.,,43.4666862,-79.6899948,13,https://www.gotransit.com/en/stations-stops-parking/find-a-station-or-stop/results?stationCode=01727,0,,,1,GO
1725,101725,Main St. S. @ George St.,,43.6511803,-79.9285126,35,https://www.gotransit.com/en/stations-stops-parking/find-a-station-or-stop/results?stationCode=01725,0,,,2,GO
1719,101719,Brock Rd. S. @ Old Brock Rd.,,43.4719391,-80.1498718,39,https://www.gotransit.com/en/stations-stops-parking/find-a-station-or-stop/results?stationCode=01719,0,,,2,GO
1718,101718,Brock Rd. S. @ Maple Leaf Ln.,,43.4715347,-80.1500168,39,https://www.gotransit.com/en/stations-stops-parking/find-a-station-or-stop/results?stationCode=01718,0,,,2,GO
1716,101716,Gordon St. @ Clairfields Dr. W.,,43.5049019,-80.1943359,39,https://www.gotransit.com/en/stations-stops-parking/find-a-station-or-stop/results?stationCode=01716,0,,,1,GO
1715,101715,Gordon St. @ Arkell Rd.,,43.5140228,-80.199501,39,https://www.gotransit.com/en/stations-stops-parking/find-a-station-or-stop/results?stationCode=01715,0,,,1,GO
1714,101714,Gordon St. @ Arkell Rd.,,43.5137901,-80.1998749,39,https://www.gotransit.com/en/stations-stops-parking/find-a-station-or-stop/results?stationCode=01714,0,,,1,GO
1713,101713,Gordon St. @ Edinburgh Rd. S.,,43.5166702,-80.2031174,39,https://www.gotransit.com/en/stations-stops-parking/find-a-station-or-stop/results?stationCode=01713,0,,,1,GO
1712,101712,Gordon St. @ Edinburgh Rd. S.,,43.5163383,-80.2033386,39,https://www.gotransit.com/en/stations-stops-parking/find-a-station-or-stop/results?stationCode=01712,0,,,1,GO
1711,101711,Gordon St. @ Kortright Rd. E.,,43.5224457,-80.2131119,39,https://www.gotransit.com/en/stations-stops-parking/find-a-station-or-stop/results?stationCode=01711,0,,,2,GO
1708,101708,Gordon St. @ Stone Rd.,,43.5271797,-80.2259216,39,https://www.gotransit.com/en/stations-stops-parking/find-a-station-or-stop/results?stationCode=01708,0,,,1,GO
1707,101707,785 York Rd. @ Cityview Dr.,,43.5588226,-80.2142868,39,https://www.gotransit.com/en/stations-stops-parking/find-a-station-or-stop/results?stationCode=01707,0,,,1,GO
1706,101706,Elizabeth St. @ Victoria Rd. S.,,43.5553131,-80.2293396,39,https://www.gotransit.com/en/stations-stops-parking/find-a-station-or-stop/results?stationCode=01706,0,,,1,GO
1704,101704,Elizabeth St. @ Stevenson St. S.,,43.5527267,-80.23526,39,https://www.gotransit.com/en/stations-stops-parking/find-a-station-or-stop/results?stationCode=01704,0,,,1,GO
1703,101703,Elizabeth St. @ Stevenson St. S.,,43.5534325,-80.2346191,39,https://www.gotransit.com/en/stations-stops-parking/find-a-station-or-stop/results?stationCode=01703,0,,,1,GO
1702,101702,Elizabeth St. @ Beaumont Cr.,,43.5560417,-80.2197418,39,https://www.gotransit.com/en/stations-stops-parking/find-a-station-or-stop/results?stationCode=01702,0,,,1,GO
1701,101701,Elizabeth St. @ Beaumont Cr.,,43.5557289,-80.2199249,39,https://www.gotransit.com/en/stations-stops-parking/find-a-station-or-stop/results?stationCode=01701,0,,,1,GO
1662,101662,Yonge St. @ Greenfield Ave.,,43.7631454,-79.4112015,5,https://www.gotransit.com/en/stations-stops-parking/find-a-station-or-stop/results?stationCode=01662,0,,,1,GO
1661,101661,Yonge St. @ Finch Ave.,,43.7804375,-79.4156036,5,https://www.gotransit.com/en/stations-stops-parking/find-a-station-or-stop/results?stationCode=01661,0,,,1,GO
1660,101660,Yonge St. @ Empress Ave.,,43.7691803,-79.4126587,5,https://www.gotransit.com/en/stations-stops-parking/find-a-station-or-stop/results?stationCode=01660,0,,,2,GO
1659,101659,Toronto St. S. @ Banff Rd.,,44.0937347,-79.1310883,76,https://www.gotransit.com/en/stations-stops-parking/find-a-station-or-stop/results?stationCode=01659,0,,,2,GO
1658,101658,Toronto St. S. @ Banff Rd.,,44.0940247,-79.1305542,76,https://www.gotransit.com/en/stations-stops-parking/find-a-station-or-stop/results?stationCode=01658,0,,,2,GO
1657,101657,Yonge St. @ William Carson Cr.,,43.7471085,-79.4072647,5,https://www.gotransit.com/en/stations-stops-parking/find-a-station-or-stop/results?stationCode=01657,0,,,1,GO
1655,101655,Yonge St. @ Norton Ave.,,43.7721901,-79.4134216,5,https://www.gotransit.com/en/stations-stops-parking/find-a-station-or-stop/results?stationCode=01655,0,,,2,GO
1654,101654,Yonge St. @ Ellerslie Ave.,,43.7724152,-79.4139328,5,https://www.gotransit.com/en/stations-stops-parking/find-a-station-or-stop/results?stationCode=01654,0,,,1,GO
1653,101653,Yonge St. @ Elmwood Ave.,,43.7664719,-79.4120407,5,https://www.gotransit.com/en/stations-stops-parking/find-a-station-or-stop/results?stationCode=01653,0,,,1,GO
1652,101652,Yonge St. @ Madawaska Ave.,,43.7941246,-79.4189682,5,https://www.gotransit.com/en/stations-stops-parking/find-a-station-or-stop/results?stationCode=01652,0,,,1,GO
1651,101651,Yonge St. @ Kempford Blvd.,,43.777153,-79.4150925,5,https://www.gotransit.com/en/stations-stops-parking/find-a-station-or-stop/results?stationCode=01651,0,,,1,GO
1650,101650,Yonge St. @ Northtown Way,,43.7753067,-79.4142609,5,https://www.gotransit.com/en/stations-stops-parking/find-a-station-or-stop/results?stationCode=01650,0,,,1,GO
1648,101648,Yonge St. @ Glendora Ave.,,43.7586899,-79.4100418,5,https://www.gotransit.com/en/stations-stops-parking/find-a-station-or-stop/results?stationCode=01648,0,,,2,GO
1647,101647,Yonge St. @ Florence Ave.,,43.7582703,-79.4102325,5,https://www.gotransit.com/en/stations-stops-parking/find-a-station-or-stop/results?stationCode=01647,0,,,1,GO
1646,101646,Yonge St. @ Drewry Ave.,,43.7871094,-79.4175034,5,https://www.gotransit.com/en/stations-stops-parking/find-a-station-or-stop/results?stationCode=01646,0,,,2,GO
1645,101645,Yonge St. @ Cummer Ave.,,43.7875671,-79.4172745,5,https://www.gotransit.com/en/stations-stops-parking/find-a-station-or-stop/results?stationCode=01645,0,,,1,GO
1644,101644,Yonge St. @ Churchill Ave.,,43.7741737,-79.4143219,5,https://www.gotransit.com/en/stations-stops-parking/find-a-station-or-stop/results?stationCode=01644,0,,,1,GO
1546,101546,Yonge St. @ Big Bay Point Rd.,,44.3565178,-79.6470184,68,https://www.gotransit.com/en/stations-stops-parking/find-a-station-or-stop/results?stationCode=01546,0,,,2,GO
1544,101544,Wellington St. E. @ First Commerce Dr.,,44.0118065,-79.4146194,63,https://www.gotransit.com/en/stations-stops-parking/find-a-station-or-stop/results?stationCode=01544,0,,,2,GO
1543,101543,Wellington St. E. @ First Commerce Dr.,,44.0122299,-79.4139557,63,https://www.gotransit.com/en/stations-stops-parking/find-a-station-or-stop/results?stationCode=01543,0,,,1,GO
1538,101538,Yonge St. @ Glenn Ave.,,44.3280373,-79.6202011,68,https://www.gotransit.com/en/stations-stops-parking/find-a-station-or-stop/results?stationCode=01538,0,,,1,GO
1537,101537,Yonge St. @ Meadowland St.,,44.2575531,-79.6023865,67,https://www.gotransit.com/en/stations-stops-parking/find-a-station-or-stop/results?stationCode=01537,0,,,2,GO
1536,101536,Yonge St. @ Madelaine Dr.,,44.3546944,-79.641861,68,https://www.gotransit.com/en/stations-stops-parking/find-a-station-or-stop/results?stationCode=01536,0,,,1,GO
1535,101535,Yonge St. @ Lynn St.,,44.3294563,-79.6208115,68,https://www.gotransit.com/en/stations-stops-parking/find-a-station-or-stop/results?stationCode=01535,0,,,1,GO
1534,101534,Yonge St. @ Lynn St.,,44.3300591,-79.6207199,68,https://www.gotransit.com/en/stations-stops-parking/find-a-station-or-stop/results?stationCode=01534,0,,,1,GO
1532,101532,Yonge St. @ Little Ave.,,44.3664589,-79.6624603,68,https://www.gotransit.com/en/stations-stops-parking/find-a-station-or-stop/results?stationCode=01532,0,,,1,GO
1531,101531,Yonge St. @ Innisfil Beach Rd.,,44.2993431,-79.6134796,67,https://www.gotransit.com/en/stations-stops-parking/find-a-station-or-stop/results?stationCode=01531,0,,,2,GO
1528,101528,Yonge St. @ Esther Dr.,,44.3528137,-79.6365738,68,https://www.gotransit.com/en/stations-stops-parking/find-a-station-or-stop/results?stationCode=01528,0,,,1,GO
1527,101527,Yonge St. @ Esther Dr.,,44.3527412,-79.6358337,68,https://www.gotransit.com/en/stations-stops-parking/find-a-station-or-stop/results?stationCode=01527,0,,,2,GO
1526,101526,Yonge St. @ Country Ln.,,44.3517113,-79.6335144,68,https://www.gotransit.com/en/stations-stops-parking/find-a-station-or-stop/results?stationCode=01526,0,,,2,GO
1525,101525,Yonge St. @ Country Ln.,,44.3516769,-79.6328354,68,https://www.gotransit.com/en/stations-stops-parking/find-a-station-or-stop/results?stationCode=01525,0,,,2,GO
1524,101524,Yonge St. @ Big Bay Point Rd.,,44.356678,-79.6467361,68,https://www.gotransit.com/en/stations-stops-parking/find-a-station-or-stop/results?stationCode=01524,0,,,2,GO
1522,101522,Yonge St. @ Innisfil Beach Rd.,,44.2995491,-79.6132584,67,https://www.gotransit.com/en/stations-stops-parking/find-a-station-or-stop/results?stationCode=01522,0,,,1,GO
1521,101521,Yonge St. @ Ashford Dr.,,44.3546104,-79.6410599,68,https://www.gotransit.com/en/stations-stops-parking/find-a-station-or-stop/results?stationCode=01521,0,,,1,GO
1516,101516,Hwy. 11 @ Meadowland St.,,44.2579079,-79.6026535,67,https://www.gotransit.com/en/stations-stops-parking/find-a-station-or-stop/results?stationCode=01516,0,,,2,GO
1515,101515,Holland St. E. @ Colborne St.,,44.1152649,-79.5600662,65,https://www.gotransit.com/en/stations-stops-parking/find-a-station-or-stop/results?stationCode=01515,0,,,1,GO
1514,101514,Holland St. E. @ Colborne St.,,44.115345,-79.5606918,65,https://www.gotransit.com/en/stations-stops-parking/find-a-station-or-stop/results?stationCode=01514,0,,,2,GO
1508,101508,Burton Ave. @ Bayview Dr.,,44.3711433,-79.6843719,69,https://www.gotransit.com/en/stations-stops-parking/find-a-station-or-stop/results?stationCode=01508,0,,,1,GO
1507,101507,Barrie St. @ Fletcher St.,,44.1208191,-79.5665207,65,https://www.gotransit.com/en/stations-stops-parking/find-a-station-or-stop/results?stationCode=01507,0,,,2,GO
1506,101506,Barrie St. @ Britannia Ave.,,44.1205559,-79.5662613,65,https://www.gotransit.com/en/stations-stops-parking/find-a-station-or-stop/results?stationCode=01506,0,,,2,GO
1505,101505,Barrie St. @ 8th Line,,44.1266556,-79.5680771,66,https://www.gotransit.com/en/stations-stops-parking/find-a-station-or-stop/results?stationCode=01505,0,,,2,GO
1504,101504,Barrie St. @ 8th Line,,44.1262932,-79.5678711,65,https://www.gotransit.com/en/stations-stops-parking/find-a-station-or-stop/results?stationCode=01504,0,,,2,GO
1488,101488,Hurontario St. @ Travelled Rd.,,43.8550072,-79.9889755,42,https://www.gotransit.com/en/stations-stops-parking/find-a-station-or-stop/results?stationCode=01488,0,,,2,GO
1487,101487,Hurontario St. @ Travelled Rd.,,43.8551598,-79.9887848,42,https://www.gotransit.com/en/stations-stops-parking/find-a-station-or-stop/results?stationCode=01487,0,,,1,GO
1483,101483,Winston Churchill Blvd. @ Vanderbilt Rd.,,43.5848999,-79.7667999,22,https://www.gotransit.com/en/stations-stops-parking/find-a-station-or-stop/results?stationCode=01483,0,,,1,GO
1482,101482,Winston Churchill Blvd. @ Derry Rd. W.,,43.5865669,-79.7686844,22,https://www.gotransit.com/en/stations-stops-parking/find-a-station-or-stop/results?stationCode=01482,0,,,1,GO
1481,101481,Derry Rd. W. @ Winston Churchill Blvd.,,43.5877228,-79.7712631,22,https://www.gotransit.com/en/stations-stops-parking/find-a-station-or-stop/results?stationCode=01481,0,,,1,GO
1462,101462,Main St. N. @ Bovaird Dr. W.,,43.7049713,-79.7861862,33,https://www.gotransit.com/en/stations-stops-parking/find-a-station-or-stop/results?stationCode=01462,0,,,1,GO
1459,101459,Steeles Ave. E. @ First Gulf Blvd.,,43.6811714,-79.7163315,33,https://www.gotransit.com/en/stations-stops-parking/find-a-station-or-stop/results?stationCode=01459,0,,,1,GO
1455,101455,Erin Mills Pkwy. @ Vista Blvd.,,43.5736008,-79.7274475,21,https://www.gotransit.com/en/stations-stops-parking/find-a-station-or-stop/results?stationCode=01455,0,,,2,GO
1454,101454,Main St. N. @ Williams Pkwy.,,43.6986389,-79.7768326,33,https://www.gotransit.com/en/stations-stops-parking/find-a-station-or-stop/results?stationCode=01454,0,,,1,GO
1452,101452,Hurontario St. @ Sandalwood Pkwy. E.,,43.7181053,-79.8032684,33,https://www.gotransit.com/en/stations-stops-parking/find-a-station-or-stop/results?stationCode=01452,0,,,1,GO
1448,101448,Mayfield Rd. @ Hwy. 50 Park & Ride,,43.8466263,-79.6971207,56,https://www.gotransit.com/en/stations-stops-parking/find-a-station-or-stop/results?stationCode=01448,0,,,1,GO
1447,101447,Erin Mills Pkwy. @ Banfield Rd.,,43.567482,-79.7188568,21,https://www.gotransit.com/en/stations-stops-parking/find-a-station-or-stop/results?stationCode=01447,0,,,2,GO
1446,101446,Erin Mills Pkwy. @ McFarren Blvd.,,43.5677757,-79.7184906,21,https://www.gotransit.com/en/stations-stops-parking/find-a-station-or-stop/results?stationCode=01446,0,,,2,GO
1445,101445,Eglinton Ave. W. @ Summersky Crt.,,43.5625381,-79.7030792,21,https://www.gotransit.com/en/stations-stops-parking/find-a-station-or-stop/results?stationCode=01445,0,,,2,GO
1444,101444,Eglinton Ave. W. @ Credit Valley Rd.,,43.5619164,-79.7030182,21,https://www.gotransit.com/en/stations-stops-parking/find-a-station-or-stop/results?stationCode=01444,0,,,2,GO
1441,101441,Trafalgar Rd. @ Burnhamthorpe Rd.,,43.5017662,-79.7387924,13,https://www.gotransit.com/en/stations-stops-parking/find-a-station-or-stop/results?stationCode=01441,0,,,2,GO
1440,101440,Mississauga Rd. @ Royal Bank Dr.,,43.6087875,-79.7501144,22,https://www.gotransit.com/en/stations-stops-parking/find-a-station-or-stop/results?stationCode=01440,0,,,1,GO
1439,101439,Mississauga Rd. @ Argentia Rd.,,43.6013832,-79.7402344,22,https://www.gotransit.com/en/stations-stops-parking/find-a-station-or-stop/results?stationCode=01439,0,,,2,GO
1438,101438,Mississauga Rd. @ Dupont Meadow Place,,43.6087685,-79.7508469,22,https://www.gotransit.com/en/stations-stops-parking/find-a-station-or-stop/results?stationCode=01438,0,,,1,GO
1436,101436,Streetsville GO Station Parking Lot,,43.5774536,-79.7130508,21,https://www.gotransit.com/en/stations-stops-parking/find-a-station-or-stop/results?stationCode=01436,0,,,1,GO
1435,101435,Trafalgar Rd. @ Burnhamthorpe Rd.,,43.5013275,-79.7375031,13,https://www.gotransit.com/en/stations-stops-parking/find-a-station-or-stop/results?stationCode=01435,0,,,2,GO
1426,101426,Main St. N. @ Vodden St. W.,,43.6926956,-79.7692566,33,https://www.gotransit.com/en/stations-stops-parking/find-a-station-or-stop/results?stationCode=01426,0,,,1,GO
1410,101410,Regional Rd. 50 @ Cross Country Blvd.,,43.8875618,-79.7492142,58,https://www.gotransit.com/en/stations-stops-parking/find-a-station-or-stop/results?stationCode=01410,0,,,2,GO
1409,101409,Regional Rd. 50 @ Bolton Heights Dr.,,43.8874474,-79.7487717,58,https://www.gotransit.com/en/stations-stops-parking/find-a-station-or-stop/results?stationCode=01409,0,,,2,GO
1408,101408,Regional Rd. 50 @ Queensgate Blvd.,,43.8690186,-79.7237167,58,https://www.gotransit.com/en/stations-stops-parking/find-a-station-or-stop/results?stationCode=01408,0,,,2,GO
1407,101407,Regional Rd. 50 @ Queensgate Blvd.,,43.8689957,-79.7231979,58,https://www.gotransit.com/en/stations-stops-parking/find-a-station-or-stop/results?stationCode=01407,0,,,2,GO
1406,101406,Hwy. 50 @ McEwan Dr.,,43.8615036,-79.7133408,58,https://www.gotransit.com/en/stations-stops-parking/find-a-station-or-stop/results?stationCode=01406,0,,,2,GO
1405,101405,Hwy. 50 @ McEwan Dr.,,43.8615341,-79.7127533,58,https://www.gotransit.com/en/stations-stops-parking/find-a-station-or-stop/results?stationCode=01405,0,,,1,GO
1404,101404,Regional Rd. 50 @ George Bolton Pkwy.,,43.8573799,-79.707756,58,https://www.gotransit.com/en/stations-stops-parking/find-a-station-or-stop/results?stationCode=01404,0,,,2,GO
1403,101403,Regional Rd. 50 @ George Bolton Pkwy.,,43.8573532,-79.7071075,58,https://www.gotransit.com/en/stations-stops-parking/find-a-station-or-stop/results?stationCode=01403,0,,,2,GO
1402,101402,Regional Rd. 50 @ Countryside Dr.,,43.8368378,-79.6890564,56,https://www.gotransit.com/en/stations-stops-parking/find-a-station-or-stop/results?stationCode=01402,0,,,2,GO
1398,101398,Hwy. 50 @ Cottrelle Blvd.,,43.78421,-79.65847,56,https://www.gotransit.com/en/stations-stops-parking/find-a-station-or-stop/results?stationCode=01398,0,,,1,GO
1394,101394,Albion Rd. @ Steeles Ave. W.,,43.7499313,-79.639595,32,https://www.gotransit.com/en/stations-stops-parking/find-a-station-or-stop/results?stationCode=01394,0,,,2,GO
1393,101393,Albion Rd. @ Steeles Ave. W.,,43.7503242,-79.6393509,32,https://www.gotransit.com/en/stations-stops-parking/find-a-station-or-stop/results?stationCode=01393,0,,,2,GO
1385,101385,Thomas St. @ Erin Mills Pkwy.,,43.5702477,-79.7223434,21,https://www.gotransit.com/en/stations-stops-parking/find-a-station-or-stop/results?stationCode=01385,0,,,1,GO
1384,101384,Thomas St. @ Erin Mills Pkwy.,,43.5701637,-79.722023,21,https://www.gotransit.com/en/stations-stops-parking/find-a-station-or-stop/results?stationCode=01384,0,,,1,GO
1374,101374,Steeles Ave. E. @ Kennedy Rd. S.,,43.6751747,-79.7234573,33,https://www.gotransit.com/en/stations-stops-parking/find-a-station-or-stop/results?stationCode=01374,0,,,2,GO
1373,101373,Steeles Ave. E. @ Kennedy Rd. S.,,43.6759148,-79.7218475,33,https://www.gotransit.com/en/stations-stops-parking/find-a-station-or-stop/results?stationCode=01373,0,,,1,GO
1363,101363,Rathburn Rd. W. @ Elora Dr.,,43.5863609,-79.6529465,20,https://www.gotransit.com/en/stations-stops-parking/find-a-station-or-stop/results?stationCode=01363,0,,,2,GO
1362,101362,Rathburn Rd. W. @ Mavis Rd.,,43.5833244,-79.6550674,20,https://www.gotransit.com/en/stations-stops-parking/find-a-station-or-stop/results?stationCode=01362,0,,,1,GO
1361,101361,Rathburn Rd. W. @ Mavis Rd.,,43.5826874,-79.6553574,20,https://www.gotransit.com/en/stations-stops-parking/find-a-station-or-stop/results?stationCode=01361,0,,,2,GO
1360,101360,Rathburn Rd. W. @ Elora Dr.,,43.5850639,-79.6535568,20,https://www.gotransit.com/en/stations-stops-parking/find-a-station-or-stop/results?stationCode=01360,0,,,2,GO
1359,101359,Rathburn Rd. W. @ Elora Dr.,,43.5884743,-79.6525726,20,https://www.gotransit.com/en/stations-stops-parking/find-a-station-or-stop/results?stationCode=01359,0,,,1,GO
1358,101358,Rathburn Rd. W. @ Elora Dr.,,43.5875092,-79.6525726,20,https://www.gotransit.com/en/stations-stops-parking/find-a-station-or-stop/results?stationCode=01358,0,,,1,GO
1357,101357,Rathburn Rd. W. @ Elora Dr.,,43.5843239,-79.6536331,20,https://www.gotransit.com/en/stations-stops-parking/find-a-station-or-stop/results?stationCode=01357,0,,,1,GO
1356,101356,Rathburn Rd. W. @ Creditview Rd.,,43.569828,-79.6690521,40,https://www.gotransit.com/en/stations-stops-parking/find-a-station-or-stop/results?stationCode=01356,0,,,1,GO
1349,101349,Queen St. E. @ Laurelcrest St.,,43.7084885,-79.7353745,33,https://www.gotransit.com/en/stations-stops-parking/find-a-station-or-stop/results?stationCode=01349,0,,,1,GO
1346,101346,Queen St. S. @ Shore St.,,43.8749657,-79.7319031,58,https://www.gotransit.com/en/stations-stops-parking/find-a-station-or-stop/results?stationCode=01346,0,,,2,GO
1344,101344,Queen St. E. @ Rutherford Rd. N.,,43.7016296,-79.7429504,33,https://www.gotransit.com/en/stations-stops-parking/find-a-station-or-stop/results?stationCode=01344,0,,,2,GO
1343,101343,Queen St. E. @ Rutherford Rd. S.,,43.7015877,-79.7425995,33,https://www.gotransit.com/en/stations-stops-parking/find-a-station-or-stop/results?stationCode=01343,0,,,2,GO
1335,101335,Queen St. S. @ Downey Dr.,,43.8749619,-79.7316437,58,https://www.gotransit.com/en/stations-stops-parking/find-a-station-or-stop/results?stationCode=01335,0,,,2,GO
1334,101334,Queen St. E. @ Centre St. N.,,43.6910973,-79.754631,33,https://www.gotransit.com/en/stations-stops-parking/find-a-station-or-stop/results?stationCode=01334,0,,,2,GO
1327,101327,Millcreek Dr. @ Millrace Crt.,,43.5925064,-79.7460556,22,https://www.gotransit.com/en/stations-stops-parking/find-a-station-or-stop/results?stationCode=01327,0,,,1,GO
1326,101326,Millcreek Dr. @ Millrace Crt.,,43.5927086,-79.7469559,22,https://www.gotransit.com/en/stations-stops-parking/find-a-station-or-stop/results?stationCode=01326,0,,,1,GO
1325,101325,Millcreek Dr. @ Erin Mills Pkwy.,,43.5904884,-79.7418976,22,https://www.gotransit.com/en/stations-stops-parking/find-a-station-or-stop/results?stationCode=01325,0,,,1,GO
1322,101322,Main St. N. @ Williams Pkwy.,,43.6990433,-79.7777634,33,https://www.gotransit.com/en/stations-stops-parking/find-a-station-or-stop/results?stationCode=01322,0,,,1,GO
1321,101321,Main St. N. @ Vodden St. E.,,43.6925087,-79.7685547,33,https://www.gotransit.com/en/stations-stops-parking/find-a-station-or-stop/results?stationCode=01321,0,,,1,GO
1317,101317,Main St. S. @ Nanwood Dr.,,43.6763763,-79.7472763,33,https://www.gotransit.com/en/stations-stops-parking/find-a-station-or-stop/results?stationCode=01317,0,,,1,GO
1316,101316,Main St. S. @ Nanwood Dr.,,43.6765976,-79.7471695,33,https://www.gotransit.com/en/stations-stops-parking/find-a-station-or-stop/results?stationCode=01316,0,,,1,GO
1313,101313,Main St. S. @ Wellington St. E.,,43.6844635,-79.7582321,33,https://www.gotransit.com/en/stations-stops-parking/find-a-station-or-stop/results?stationCode=01313,0,,,1,GO
1311,101311,Wellington St. W. @ George St. S.,,43.6841316,-79.7590332,33,https://www.gotransit.com/en/stations-stops-parking/find-a-station-or-stop/results?stationCode=01311,0,,,2,GO
1308,101308,Main St. S. @ Elgin Dr.,,43.6736908,-79.743866,33,https://www.gotransit.com/en/stations-stops-parking/find-a-station-or-stop/results?stationCode=01308,0,,,2,GO
1307,101307,Main St. S. @ Elgin Dr.,,43.6734314,-79.7431564,33,https://www.gotransit.com/en/stations-stops-parking/find-a-station-or-stop/results?stationCode=01307,0,,,1,GO
1306,101306,Main St. S. @ Clarence St.,,43.6800728,-79.752037,33,https://www.gotransit.com/en/stations-stops-parking/find-a-station-or-stop/results?stationCode=01306,0,,,2,GO
1294,101294,Hwy. 10 @ Dufferin Rd.,,43.9159317,-80.0721436,43,https://www.gotransit.com/en/stations-stops-parking/find-a-station-or-stop/results?stationCode=01294,0,,,2,GO
1292,101292,Hurontario St. @ Travelled Rd.,,43.8571777,-79.9916916,42,https://www.gotransit.com/en/stations-stops-parking/find-a-station-or-stop/results?stationCode=01292,0,,,1,GO
1291,101291,Hurontario St. @ Terry St.,,43.8870239,-80.0324097,43,https://www.gotransit.com/en/stations-stops-parking/find-a-station-or-stop/results?stationCode=01291,0,,,1,GO
1290,101290,Hurontario St. @ Terry St.,,43.8870316,-80.0319824,43,https://www.gotransit.com/en/stations-stops-parking/find-a-station-or-stop/results?stationCode=01290,0,,,1,GO
1289,101289,Hurontario St. @ Olde Baseline Rd.,,43.8008842,-79.9158249,42,https://www.gotransit.com/en/stations-stops-parking/find-a-station-or-stop/results?stationCode=01289,0,,,2,GO
1288,101288,Hurontario St. @ Olde Baseline Rd.,,43.8009415,-79.9153137,42,https://www.gotransit.com/en/stations-stops-parking/find-a-station-or-stop/results?stationCode=01288,0,,,1,GO
1286,101286,Hurontario St. @ Mistywood Dr.,,43.8640289,-80.0011749,42,https://www.gotransit.com/en/stations-stops-parking/find-a-station-or-stop/results?stationCode=01286,0,,,2,GO
1285,101285,Hurontario St. @ McCannell Ave.,,43.9154625,-80.0709457,43,https://www.gotransit.com/en/stations-stops-parking/find-a-station-or-stop/results?stationCode=01285,0,,,1,GO
1284,101284,Hurontario St. @ Forks of The Credit Rd.,,43.8327255,-79.9588242,42,https://www.gotransit.com/en/stations-stops-parking/find-a-station-or-stop/results?stationCode=01284,0,,,2,GO
1283,101283,Hurontario St. @ Forks of The Credit Rd.,,43.8325996,-79.9580383,42,https://www.gotransit.com/en/stations-stops-parking/find-a-station-or-stop/results?stationCode=01283,0,,,2,GO
1282,101282,Hurontario St. @ Chester Dr.,,43.8635445,-80.0002823,42,https://www.gotransit.com/en/stations-stops-parking/find-a-station-or-stop/results?stationCode=01282,0,,,2,GO
1281,101281,Hurontario St. @ Boston Mills Rd.,,43.7933197,-79.905365,41,https://www.gotransit.com/en/stations-stops-parking/find-a-station-or-stop/results?stationCode=01281,0,,,1,GO
1280,101280,Hurontario St. @ Boston Mills Rd.,,43.7932968,-79.9048004,41,https://www.gotransit.com/en/stations-stops-parking/find-a-station-or-stop/results?stationCode=01280,0,,,2,GO
1279,101279,Hwy. 10 @ 4th Ave.,,43.9273758,-80.0888596,43,https://www.gotransit.com/en/stations-stops-parking/find-a-station-or-stop/results?stationCode=01279,0,,,2,GO
1276,101276,Hurontario St. @ Wanless Dr.,,43.7261734,-79.8145447,33,https://www.gotransit.com/en/stations-stops-parking/find-a-station-or-stop/results?stationCode=01276,0,,,2,GO
1271,101271,Hurontario St. @ Sandalwood Pkwy. W.,,43.7173424,-79.8027267,33,https://www.gotransit.com/en/stations-stops-parking/find-a-station-or-stop/results?stationCode=01271,0,,,1,GO
1261,101261,Hurontario St. @ Conservation Dr.,,43.7256508,-79.8135529,33,https://www.gotransit.com/en/stations-stops-parking/find-a-station-or-stop/results?stationCode=01261,0,,,1,GO
1258,101258,Hurontario St. @ Bovaird Dr. W.,,43.70655,-79.78753,33,https://www.gotransit.com/en/stations-stops-parking/find-a-station-or-stop/results?stationCode=01258,0,,,1,GO
1256,101256,Hansen Blvd. @ Scott Dr.,,43.9273224,-80.113327,43,https://www.gotransit.com/en/stations-stops-parking/find-a-station-or-stop/results?stationCode=01256,0,,,2,GO
1255,101255,Hansen Blvd. @ Michael Dr.,,43.9295616,-80.1105499,43,https://www.gotransit.com/en/stations-stops-parking/find-a-station-or-stop/results?stationCode=01255,0,,,2,GO
1249,101249,Finch Ave. @ Kenview Blvd. (Wild Water Kingdom),,43.7398796,-79.6431732,32,https://www.gotransit.com/en/stations-stops-parking/find-a-station-or-stop/results?stationCode=01249,0,,,2,GO
1248,101248,Finch Ave. @ Kenview Blvd.,,43.7401047,-79.6440582,32,https://www.gotransit.com/en/stations-stops-parking/find-a-station-or-stop/results?stationCode=01248,0,,,2,GO
1247,101247,Erin Mills Pkwy. @ Erin Centre Blvd.,,43.5623436,-79.7118835,21,https://www.gotransit.com/en/stations-stops-parking/find-a-station-or-stop/results?stationCode=01247,0,,,2,GO
1246,101246,Mississauga Rd. @ Argentia Rd.,,43.6003456,-79.7399902,22,https://www.gotransit.com/en/stations-stops-parking/find-a-station-or-stop/results?stationCode=01246,0,,,2,GO
1245,101245,Erin Mills Pkwy. @ Windwood Dr.,,43.5805435,-79.7364044,22,https://www.gotransit.com/en/stations-stops-parking/find-a-station-or-stop/results?stationCode=01245,0,,,1,GO
1244,101244,Erin Mills Pkwy. @ Wickham Rd.,,43.5729256,-79.7273483,21,https://www.gotransit.com/en/stations-stops-parking/find-a-station-or-stop/results?stationCode=01244,0,,,2,GO
1243,101243,Erin Mills Pkwy. @ Millcreek Dr.,,43.5906754,-79.7408752,22,https://www.gotransit.com/en/stations-stops-parking/find-a-station-or-stop/results?stationCode=01243,0,,,1,GO
1242,101242,Erin Mills Pkwy. @ Millcreek Dr.,,43.5896568,-79.7415771,22,https://www.gotransit.com/en/stations-stops-parking/find-a-station-or-stop/results?stationCode=01242,0,,,2,GO
1241,101241,Erin Mills Pkwy. @ Credit Valley Rd. (Credit Valley Hospital),,43.5574188,-79.7034225,21,https://www.gotransit.com/en/stations-stops-parking/find-a-station-or-stop/results?stationCode=01241,0,,,2,GO
1240,101240,Erin Mills Pkwy. @ Erin Centre Blvd.,,43.5623245,-79.7112045,21,https://www.gotransit.com/en/stations-stops-parking/find-a-station-or-stop/results?stationCode=01240,0,,,2,GO
1238,101238,Erin Mills Pkwy. @ Credit Valley Rd. (Credit Valley Hospital),,43.5567551,-79.702858,21,https://www.gotransit.com/en/stations-stops-parking/find-a-station-or-stop/results?stationCode=01238,0,,,2,GO
1237,101237,Erin Mills Pkwy. @ Britannia Rd. W.,,43.5787163,-79.7339401,22,https://www.gotransit.com/en/stations-stops-parking/find-a-station-or-stop/results?stationCode=01237,0,,,1,GO
1236,101236,Erin Mills Pkwy. @ Battleford Rd.,,43.5849304,-79.742157,22,https://www.gotransit.com/en/stations-stops-parking/find-a-station-or-stop/results?stationCode=01236,0,,,2,GO
1235,101235,Eglinton Ave. W. @ Mississauga Rd.,,43.5688934,-79.6957703,21,https://www.gotransit.com/en/stations-stops-parking/find-a-station-or-stop/results?stationCode=01235,0,,,2,GO
1234,101234,Eglinton Ave. W. @ Mississauga Rd.,,43.5683022,-79.695961,21,https://www.gotransit.com/en/stations-stops-parking/find-a-station-or-stop/results?stationCode=01234,0,,,2,GO
1230,101230,Duke of York Blvd. @ Princess Royal Dr.,,43.5899925,-79.6446991,20,https://www.gotransit.com/en/stations-stops-parking/find-a-station-or-stop/results?stationCode=01230,0,,,1,GO
1204,101204,Derry Rd. W. @ Terragar Blvd.,,43.5817947,-79.7787247,22,https://www.gotransit.com/en/stations-stops-parking/find-a-station-or-stop/results?stationCode=01204,0,,,1,GO
1203,101203,Derry Rd. W. @ Tenth Line W.,,43.5840569,-79.7763901,22,https://www.gotransit.com/en/stations-stops-parking/find-a-station-or-stop/results?stationCode=01203,0,,,2,GO
1202,101202,Derry Rd. W. @ Tenth Line W.,,43.5840263,-79.7760086,22,https://www.gotransit.com/en/stations-stops-parking/find-a-station-or-stop/results?stationCode=01202,0,,,1,GO
1200,101200,Derry Rd. W. @ Rosehurst Dr.,,43.576725,-79.7844009,22,https://www.gotransit.com/en/stations-stops-parking/find-a-station-or-stop/results?stationCode=01200,0,,,1,GO
1198,101198,Derry Rd. W. @ Lisgar Dr.,,43.5767136,-79.7842407,22,https://www.gotransit.com/en/stations-stops-parking/find-a-station-or-stop/results?stationCode=01198,0,,,2,GO
1197,101197,Derry Rd. W. @ Forest Park Dr.,,43.5812836,-79.7789993,22,https://www.gotransit.com/en/stations-stops-parking/find-a-station-or-stop/results?stationCode=01197,0,,,1,GO
1196,101196,Derry Rd. W. @ Danton Promenade,,43.5863571,-79.7735062,22,https://www.gotransit.com/en/stations-stops-parking/find-a-station-or-stop/results?stationCode=01196,0,,,2,GO
1195,101195,Derry Rd. W. @ Danton Promenade,,43.5858917,-79.7736511,22,https://www.gotransit.com/en/stations-stops-parking/find-a-station-or-stop/results?stationCode=01195,0,,,2,GO
1193,101193,Derry Rd. W. @ Ninth Line,,43.5746651,-79.7863235,22,https://www.gotransit.com/en/stations-stops-parking/find-a-station-or-stop/results?stationCode=01193,0,,,2,GO
1192,101192,Creditview Rd. @ Rathkeale Rd.,,43.5761566,-79.6826859,40,https://www.gotransit.com/en/stations-stops-parking/find-a-station-or-stop/results?stationCode=01192,0,,,1,GO
1191,101191,Creditview Rd. @ Eglinton Ave.,,43.577282,-79.6845093,40,https://www.gotransit.com/en/stations-stops-parking/find-a-station-or-stop/results?stationCode=01191,0,,,2,GO
1185,101185,Clark Blvd. @ Kings Cross Rd.,,43.7183762,-79.7130508,32,https://www.gotransit.com/en/stations-stops-parking/find-a-station-or-stop/results?stationCode=01185,0,,,1,GO
1184,101184,Clark Blvd. @ Kings Cross Rd.,,43.7190437,-79.7124939,32,https://www.gotransit.com/en/stations-stops-parking/find-a-station-or-stop/results?stationCode=01184,0,,,1,GO
1177,101177,Broadway @ Wellington St.,,43.9202347,-80.0920944,43,https://www.gotransit.com/en/stations-stops-parking/find-a-station-or-stop/results?stationCode=01177,0,,,1,GO
1176,101176,Broadway @ Townline,,43.9213676,-80.0873718,43,https://www.gotransit.com/en/stations-stops-parking/find-a-station-or-stop/results?stationCode=01176,0,,,1,GO
1174,101174,Broadway @ John St.,,43.9187775,-80.0992432,43,https://www.gotransit.com/en/stations-stops-parking/find-a-station-or-stop/results?stationCode=01174,0,,,1,GO
1173,101173,Broadway @ Dawson Rd.,,43.9168129,-80.1082001,43,https://www.gotransit.com/en/stations-stops-parking/find-a-station-or-stop/results?stationCode=01173,0,,,2,GO
1172,101172,Broadway @ Centre St.,,43.9175949,-80.1044159,43,https://www.gotransit.com/en/stations-stops-parking/find-a-station-or-stop/results?stationCode=01172,0,,,2,GO
1171,101171,Broadway @ Banting Dr.,,43.9158554,-80.1123886,43,https://www.gotransit.com/en/stations-stops-parking/find-a-station-or-stop/results?stationCode=01171,0,,,1,GO
1170,101170,Broadway @ 4th St.,,43.9208946,-80.0893478,43,https://www.gotransit.com/en/stations-stops-parking/find-a-station-or-stop/results?stationCode=01170,0,,,1,GO
1165,101165,Bramalea Rd. @ Dearbourne Blvd.,,43.7092781,-79.6968994,32,https://www.gotransit.com/en/stations-stops-parking/find-a-station-or-stop/results?stationCode=01165,0,,,1,GO
1161,101161,Bramalea Rd. @ Balmoral Dr.,,43.7152138,-79.7049255,32,https://www.gotransit.com/en/stations-stops-parking/find-a-station-or-stop/results?stationCode=01161,0,,,1,GO
1160,101160,Bramalea Rd. @ Avondale Blvd.,,43.7094116,-79.6974106,32,https://www.gotransit.com/en/stations-stops-parking/find-a-station-or-stop/results?stationCode=01160,0,,,1,GO
1153,101153,Bovaird Dr. W. @ Worthington Ave.,,43.6813278,-79.8141403,34,https://www.gotransit.com/en/stations-stops-parking/find-a-station-or-stop/results?stationCode=01153,0,,,1,GO
1150,101150,Bovaird Dr. W. @ McLaughlin Rd. N.,,43.6961441,-79.7971039,33,https://www.gotransit.com/en/stations-stops-parking/find-a-station-or-stop/results?stationCode=01150,0,,,1,GO
1143,101143,Blind Line @ St. Andrews Dr.,,43.919075,-80.1154175,43,https://www.gotransit.com/en/stations-stops-parking/find-a-station-or-stop/results?stationCode=01143,0,,,2,GO
1140,101140,Blind Line @ Banting Dr.,,43.9170532,-80.114975,43,https://www.gotransit.com/en/stations-stops-parking/find-a-station-or-stop/results?stationCode=01140,0,,,2,GO
1139,101139,Aquitaine Ave. @ Millcreek Dr.,,43.5927467,-79.756218,22,https://www.gotransit.com/en/stations-stops-parking/find-a-station-or-stop/results?stationCode=01139,0,,,2,GO
1138,101138,Aquitaine Ave. @ Millcreek Dr.,,43.5933189,-79.7559357,22,https://www.gotransit.com/en/stations-stops-parking/find-a-station-or-stop/results?stationCode=01138,0,,,2,GO
1137,101137,Aquitaine Ave. @ Montevideo Rd.,,43.5907898,-79.7561111,22,https://www.gotransit.com/en/stations-stops-parking/find-a-station-or-stop/results?stationCode=01137,0,,,2,GO
1136,101136,Aquitaine Ave. @ Montevideo Rd.,,43.5898781,-79.7560043,22,https://www.gotransit.com/en/stations-stops-parking/find-a-station-or-stop/results?stationCode=01136,0,,,2,GO
1135,101135,Aquitaine Ave. @ Glen Erin Dr.,,43.5866318,-79.7586594,22,https://www.gotransit.com/en/stations-stops-parking/find-a-station-or-stop/results?stationCode=01135,0,,,2,GO
1134,101134,Aquitaine Ave. @ Glen Erin Dr.,,43.5867882,-79.7581024,22,https://www.gotransit.com/en/stations-stops-parking/find-a-station-or-stop/results?stationCode=01134,0,,,2,GO
1024,101024,Thompson Rd. S. @ Derry Rd. W.,,43.517498,-79.8523712,24,https://www.gotransit.com/en/stations-stops-parking/find-a-station-or-stop/results?stationCode=01024,0,,,1,GO
1022,101022,Queen St. E. @ Kennedy Rd. N.,,43.6954765,-79.749939,33,https://www.gotransit.com/en/stations-stops-parking/find-a-station-or-stop/results?stationCode=01022,0,,,2,GO
1021,101021,Queen St. E. @ Kennedy Rd. S.,,43.696003,-79.7488632,33,https://www.gotransit.com/en/stations-stops-parking/find-a-station-or-stop/results?stationCode=01021,0,,,2,GO
1017,101017,Derry Rd. @ Thompson Rd. S.,,43.5167885,-79.8501892,24,https://www.gotransit.com/en/stations-stops-parking/find-a-station-or-stop/results?stationCode=01017,0,,,2,GO
1016,101016,Derry Rd. @ Thompson Rd. S.,,43.516552,-79.8508148,24,https://www.gotransit.com/en/stations-stops-parking/find-a-station-or-stop/results?stationCode=01016,0,,,2,GO
1014,101014,Main St. W. @ Summers Ln. (Hamilton City Hall),,43.2560577,-79.8728027,18,https://www.gotransit.com/en/stations-stops-parking/find-a-station-or-stop/results?stationCode=01014,0,,,1,GO
1013,101013,Main St. W. @ Poulette St.,,43.2591286,-79.8864059,18,https://www.gotransit.com/en/stations-stops-parking/find-a-station-or-stop/results?stationCode=01013,0,,,2,GO
1012,101012,Main St. W. @ Ray St. S.,,43.257885,-79.8809128,18,https://www.gotransit.com/en/stations-stops-parking/find-a-station-or-stop/results?stationCode=01012,0,,,1,GO
1011,101011,Main St. W. @ Pearl St. S.,,43.2583809,-79.8828964,18,https://www.gotransit.com/en/stations-stops-parking/find-a-station-or-stop/results?stationCode=01011,0,,,2,GO
1010,101010,Main St. W. @ Paisley Ave. S.,,43.2584991,-79.9061661,18,https://www.gotransit.com/en/stations-stops-parking/find-a-station-or-stop/results?stationCode=01010,0,,,1,GO
1009,101009,Main St. W. @ Macklin St. S.,,43.2599144,-79.8979721,18,https://www.gotransit.com/en/stations-stops-parking/find-a-station-or-stop/results?stationCode=01009,0,,,2,GO
1008,101008,Main St. W. @ Dundurn St. S.,,43.2598228,-79.8895493,18,https://www.gotransit.com/en/stations-stops-parking/find-a-station-or-stop/results?stationCode=01008,0,,,2,GO
1007,101007,Main St. W. @ Caroline St. S.,,43.2570419,-79.8766251,18,https://www.gotransit.com/en/stations-stops-parking/find-a-station-or-stop/results?stationCode=01007,0,,,2,GO
1006,101006,King St. W. @ Summers Ln. (Hamilton Place),,43.2576485,-79.8717346,18,https://www.gotransit.com/en/stations-stops-parking/find-a-station-or-stop/results?stationCode=01006,0,,,1,GO
1005,101005,King St. W. @ Strathcona Ave. N.,,43.2614555,-79.8850708,18,https://www.gotransit.com/en/stations-stops-parking/find-a-station-or-stop/results?stationCode=01005,0,,,1,GO
1004,101004,King St. W. @ Pearl St. N.,,43.2602654,-79.8814011,18,https://www.gotransit.com/en/stations-stops-parking/find-a-station-or-stop/results?stationCode=01004,0,,,1,GO
1002,101002,King St. E. @ Hughson St. N.,,43.2562103,-79.8672409,18,https://www.gotransit.com/en/stations-stops-parking/find-a-station-or-stop/results?stationCode=01002,0,,,2,GO
1001,101001,King St. W. @ Caroline St. N.,,43.258461,-79.8752441,18,https://www.gotransit.com/en/stations-stops-parking/find-a-station-or-stop/results?stationCode=01001,0,,,2,GO
992,100992,Hurontario St. @ Sir Lou Dr.,,43.6612053,-79.7271576,22,https://www.gotransit.com/en/stations-stops-parking/find-a-station-or-stop/results?stationCode=00992,0,,,1,GO
991,100991,Hurontario St. @ Ray Lawson Blvd.,,43.658577,-79.7236023,22,https://www.gotransit.com/en/stations-stops-parking/find-a-station-or-stop/results?stationCode=00991,0,,,1,GO
990,100990,Hurontario St. @ County Court Blvd.,,43.6589584,-79.7234879,22,https://www.gotransit.com/en/stations-stops-parking/find-a-station-or-stop/results?stationCode=00990,0,,,1,GO
989,100989,Hurontario St. @ County Court Blvd.,,43.6621399,-79.7277679,22,https://www.gotransit.com/en/stations-stops-parking/find-a-station-or-stop/results?stationCode=00989,0,,,1,GO
978,100978,Yonge St. @ County Rd. 89,,44.2153625,-79.5903854,66,https://www.gotransit.com/en/stations-stops-parking/find-a-station-or-stop/results?stationCode=00978,0,,,1,GO
977,100977,Yonge St. @ Shore Acres Dr.,,44.2156067,-79.5902023,66,https://www.gotransit.com/en/stations-stops-parking/find-a-station-or-stop/results?stationCode=00977,0,,,1,GO
976,100976,Guelph St. @ Mountainview Rd. S.,,43.6500969,-79.9024353,35,https://www.gotransit.com/en/stations-stops-parking/find-a-station-or-stop/results?stationCode=00976,0,,,2,GO
975,100975,Guelph St. @ Maple Ave.,,43.6509438,-79.9177551,35,https://www.gotransit.com/en/stations-stops-parking/find-a-station-or-stop/results?stationCode=00975,0,,,2,GO
974,100974,Tenth Line @ Forsyth Farm Dr.,,43.9830933,-79.233284,74,https://www.gotransit.com/en/stations-stops-parking/find-a-station-or-stop/results?stationCode=00974,0,,,2,GO
973,100973,Tenth Line @ Forsyth Farm Dr.,,43.9838295,-79.2332001,74,https://www.gotransit.com/en/stations-stops-parking/find-a-station-or-stop/results?stationCode=00973,0,,,2,GO
972,100972,Kingston Rd. @ Walnut Ln.,,43.8309517,-79.0968323,91,https://www.gotransit.com/en/stations-stops-parking/find-a-station-or-stop/results?stationCode=00972,0,,,1,GO
971,100971,Kingston Rd. @ Walnut Ln.,,43.8308105,-79.0965042,91,https://www.gotransit.com/en/stations-stops-parking/find-a-station-or-stop/results?stationCode=00971,0,,,1,GO
969,100969,Hwy. 50 @ Trade Valley Dr.,,43.7921371,-79.6624756,56,https://www.gotransit.com/en/stations-stops-parking/find-a-station-or-stop/results?stationCode=00969,0,,,1,GO
968,100968,Hwy 50 @ Bellchase Trail,,43.7921333,-79.6630402,56,https://www.gotransit.com/en/stations-stops-parking/find-a-station-or-stop/results?stationCode=00968,0,,,1,GO
965,100965,Tenth Line @ Norm Faulkner Dr.,,43.9801979,-79.2322922,74,https://www.gotransit.com/en/stations-stops-parking/find-a-station-or-stop/results?stationCode=00965,0,,,2,GO
964,100964,Tenth Line @ Hemlock Dr.,,43.9804611,-79.2326508,74,https://www.gotransit.com/en/stations-stops-parking/find-a-station-or-stop/results?stationCode=00964,0,,,2,GO
963,100963,Regional Rd. 50 @ Rutherford Rd.,,43.8034859,-79.6692581,56,https://www.gotransit.com/en/stations-stops-parking/find-a-station-or-stop/results?stationCode=00963,0,,,1,GO
